[
  {
    "reference": "US-0017",
    "name": "Congaree National Park",
    "latitude": 33.8432,
    "longitude": -80.8289,
    "grid": "EM93ou",
    "locationDesc": "US-SC",
    "attempts": 193,
    "activations": 186,
    "qsos": 6867
  },
  {
    "reference": "US-0265",
    "name": "Pinckney Island National Wildlife Refuge",
    "latitude": 32.2298,
    "longitude": -80.7848,
    "grid": "EM92of",
    "locationDesc": "US-SC",
    "attempts": 217,
    "activations": 209,
    "qsos": 8378
  },
  {
    "reference": "US-0518",
    "name": "Cape Romain National Wildlife Refuge",
    "latitude": 32.9402,
    "longitude": -79.6581,
    "grid": "FM02ew",
    "locationDesc": "US-SC",
    "attempts": 59,
    "activations": 59,
    "qsos": 1563
  },
  {
    "reference": "US-0519",
    "name": "Carolina Sandhills National Wildlife Refuge",
    "latitude": 34.5796,
    "longitude": -80.2328,
    "grid": "EM94vn",
    "locationDesc": "US-SC",
    "attempts": 114,
    "activations": 108,
    "qsos": 4375
  },
  {
    "reference": "US-0520",
    "name": "Ernest F. Hollings ACE Basin National Wildlife Refuge",
    "latitude": 32.6968,
    "longitude": -80.3813,
    "grid": "EM92tq",
    "locationDesc": "US-SC",
    "attempts": 55,
    "activations": 53,
    "qsos": 2360
  },
  {
    "reference": "US-0521",
    "name": "Santee National Wildlife Refuge",
    "latitude": 33.5305,
    "longitude": -80.427,
    "grid": "EM93sm",
    "locationDesc": "US-SC",
    "attempts": 116,
    "activations": 115,
    "qsos": 2910
  },
  {
    "reference": "US-0522",
    "name": "Savannah National Wildlife Refuge",
    "latitude": 32.1655,
    "longitude": -81.1514,
    "grid": "EM92kd",
    "locationDesc": "US-GA,US-SC",
    "attempts": 571,
    "activations": 560,
    "qsos": 20370
  },
  {
    "reference": "US-0524",
    "name": "Waccamaw National Wildlife Refuge",
    "latitude": 33.7857,
    "longitude": -79.0329,
    "grid": "FM03ls",
    "locationDesc": "US-SC",
    "attempts": 266,
    "activations": 153,
    "qsos": 5342
  },
  {
    "reference": "US-0702",
    "name": "Cowpens National Battlefield",
    "latitude": 35.1417,
    "longitude": -81.8159,
    "grid": "EM95cd",
    "locationDesc": "US-SC",
    "attempts": 650,
    "activations": 639,
    "qsos": 27001
  },
  {
    "reference": "US-0720",
    "name": "Kings Mountain National Military Park",
    "latitude": 35.1525,
    "longitude": -81.3951,
    "grid": "EM95hd",
    "locationDesc": "US-SC",
    "attempts": 746,
    "activations": 732,
    "qsos": 22018
  },
  {
    "reference": "US-0806",
    "name": "Charles Pinckney National Historic Site",
    "latitude": 32.8465,
    "longitude": -79.8234,
    "grid": "FM02cu",
    "locationDesc": "US-SC",
    "attempts": 108,
    "activations": 108,
    "qsos": 3015
  },
  {
    "reference": "US-0852",
    "name": "Ninety Six National Historic Site",
    "latitude": 34.147,
    "longitude": -82.0241,
    "grid": "EM84xd",
    "locationDesc": "US-SC",
    "attempts": 162,
    "activations": 162,
    "qsos": 6431
  },
  {
    "reference": "US-0932",
    "name": "Fort Sumter and Fort Moultrie National Historic Site",
    "latitude": 32.761,
    "longitude": -79.8571,
    "grid": "FM02bs",
    "locationDesc": "US-SC",
    "attempts": 68,
    "activations": 66,
    "qsos": 2780
  },
  {
    "reference": "US-2882",
    "name": "Aiken State Park",
    "latitude": 33.5509,
    "longitude": -81.4906,
    "grid": "EM93gn",
    "locationDesc": "US-SC",
    "attempts": 148,
    "activations": 140,
    "qsos": 8235
  },
  {
    "reference": "US-2883",
    "name": "Andrew Jackson State Park",
    "latitude": 34.8414,
    "longitude": -80.8086,
    "grid": "EM94ou",
    "locationDesc": "US-SC",
    "attempts": 425,
    "activations": 395,
    "qsos": 20929
  },
  {
    "reference": "US-2884",
    "name": "Baker Creek State Park",
    "latitude": 33.8979,
    "longitude": -82.3484,
    "grid": "EM83tv",
    "locationDesc": "US-SC",
    "attempts": 70,
    "activations": 69,
    "qsos": 3389
  },
  {
    "reference": "US-2885",
    "name": "Barnwell State Park",
    "latitude": 33.3287,
    "longitude": -81.301,
    "grid": "EM93ih",
    "locationDesc": "US-SC",
    "attempts": 106,
    "activations": 95,
    "qsos": 5939
  },
  {
    "reference": "US-2886",
    "name": "Caesar's Head State Park",
    "latitude": 35.1061,
    "longitude": -82.6261,
    "grid": "EM85qc",
    "locationDesc": "US-SC",
    "attempts": 93,
    "activations": 87,
    "qsos": 2418
  },
  {
    "reference": "US-2887",
    "name": "Calhoun Falls State Park",
    "latitude": 34.1079,
    "longitude": -82.5983,
    "grid": "EM84qc",
    "locationDesc": "US-SC",
    "attempts": 108,
    "activations": 104,
    "qsos": 3842
  },
  {
    "reference": "US-2888",
    "name": "Cheraw State Park",
    "latitude": 34.6476,
    "longitude": -79.8941,
    "grid": "FM04bp",
    "locationDesc": "US-SC",
    "attempts": 102,
    "activations": 100,
    "qsos": 5348
  },
  {
    "reference": "US-2889",
    "name": "Chester State Park",
    "latitude": 34.6835,
    "longitude": -81.2488,
    "grid": "EM94jq",
    "locationDesc": "US-SC",
    "attempts": 266,
    "activations": 251,
    "qsos": 18387
  },
  {
    "reference": "US-2890",
    "name": "Colleton State Park",
    "latitude": 33.061,
    "longitude": -80.6159,
    "grid": "EM93qb",
    "locationDesc": "US-SC",
    "attempts": 178,
    "activations": 173,
    "qsos": 7284
  },
  {
    "reference": "US-2891",
    "name": "Croft State Park",
    "latitude": 34.8917,
    "longitude": -81.8713,
    "grid": "EM94bv",
    "locationDesc": "US-SC",
    "attempts": 229,
    "activations": 219,
    "qsos": 9309
  },
  {
    "reference": "US-2892",
    "name": "Devil's Fork State Park",
    "latitude": 34.9521,
    "longitude": -82.9452,
    "grid": "EM84mw",
    "locationDesc": "US-SC",
    "attempts": 95,
    "activations": 93,
    "qsos": 4967
  },
  {
    "reference": "US-2893",
    "name": "Dreher Island State Park",
    "latitude": 34.0967,
    "longitude": -81.4158,
    "grid": "EM94hc",
    "locationDesc": "US-SC",
    "attempts": 232,
    "activations": 229,
    "qsos": 10440
  },
  {
    "reference": "US-2894",
    "name": "Edisto Beach State Park",
    "latitude": 32.504,
    "longitude": -80.2965,
    "grid": "EM92um",
    "locationDesc": "US-SC",
    "attempts": 192,
    "activations": 187,
    "qsos": 10562
  },
  {
    "reference": "US-2895",
    "name": "Givhans Ferry State Park",
    "latitude": 33.0272,
    "longitude": -80.3853,
    "grid": "EM93ta",
    "locationDesc": "US-SC",
    "attempts": 427,
    "activations": 409,
    "qsos": 17750
  },
  {
    "reference": "US-2896",
    "name": "Goodale State Park",
    "latitude": 34.2853,
    "longitude": -80.5286,
    "grid": "EM94rg",
    "locationDesc": "US-SC",
    "attempts": 129,
    "activations": 125,
    "qsos": 4805
  },
  {
    "reference": "US-2897",
    "name": "Hamilton Branch State Park",
    "latitude": 33.7542,
    "longitude": -82.2023,
    "grid": "EM83vs",
    "locationDesc": "US-SC",
    "attempts": 133,
    "activations": 127,
    "qsos": 9475
  },
  {
    "reference": "US-2898",
    "name": "Hickory Knob Resort State Park",
    "latitude": 33.8806,
    "longitude": -82.4309,
    "grid": "EM83sv",
    "locationDesc": "US-SC",
    "attempts": 69,
    "activations": 68,
    "qsos": 3181
  },
  {
    "reference": "US-2899",
    "name": "Hunting Island State Park",
    "latitude": 32.3878,
    "longitude": -80.4384,
    "grid": "EM92sj",
    "locationDesc": "US-SC",
    "attempts": 188,
    "activations": 176,
    "qsos": 7587
  },
  {
    "reference": "US-2900",
    "name": "Huntington Beach State Park",
    "latitude": 33.5138,
    "longitude": -79.0738,
    "grid": "FM03lm",
    "locationDesc": "US-SC",
    "attempts": 443,
    "activations": 419,
    "qsos": 20844
  },
  {
    "reference": "US-2901",
    "name": "Jones Gap State Park",
    "latitude": 35.1255,
    "longitude": -82.5703,
    "grid": "EM85rd",
    "locationDesc": "US-SC",
    "attempts": 56,
    "activations": 49,
    "qsos": 1091
  },
  {
    "reference": "US-2902",
    "name": "Kings Mountain State Park",
    "latitude": 35.1488,
    "longitude": -81.3344,
    "grid": "EM95hd",
    "locationDesc": "US-SC",
    "attempts": 1158,
    "activations": 1127,
    "qsos": 44015
  },
  {
    "reference": "US-2903",
    "name": "Lake Warren State Park",
    "latitude": 32.8339,
    "longitude": -81.1635,
    "grid": "EM92ku",
    "locationDesc": "US-SC",
    "attempts": 59,
    "activations": 52,
    "qsos": 1535
  },
  {
    "reference": "US-2904",
    "name": "Landsford Canal State Park",
    "latitude": 34.7854,
    "longitude": -80.8949,
    "grid": "EM94ns",
    "locationDesc": "US-SC",
    "attempts": 267,
    "activations": 241,
    "qsos": 9787
  },
  {
    "reference": "US-2905",
    "name": "Lee State Park",
    "latitude": 34.203,
    "longitude": -80.176,
    "grid": "EM94ve",
    "locationDesc": "US-SC",
    "attempts": 544,
    "activations": 529,
    "qsos": 17125
  },
  {
    "reference": "US-2906",
    "name": "Little Pee Dee State Park",
    "latitude": 34.3296,
    "longitude": -79.2832,
    "grid": "FM04ih",
    "locationDesc": "US-SC",
    "attempts": 152,
    "activations": 144,
    "qsos": 6230
  },
  {
    "reference": "US-2907",
    "name": "Myrtle Beach State Park",
    "latitude": 33.6487,
    "longitude": -78.938,
    "grid": "FM03mp",
    "locationDesc": "US-SC",
    "attempts": 463,
    "activations": 429,
    "qsos": 20058
  },
  {
    "reference": "US-2908",
    "name": "Oconee State Park",
    "latitude": 34.8655,
    "longitude": -83.1051,
    "grid": "EM84ku",
    "locationDesc": "US-SC",
    "attempts": 233,
    "activations": 222,
    "qsos": 19406
  },
  {
    "reference": "US-2909",
    "name": "Paris Mountain State Park",
    "latitude": 34.9259,
    "longitude": -82.3656,
    "grid": "EM84tw",
    "locationDesc": "US-SC",
    "attempts": 465,
    "activations": 445,
    "qsos": 16564
  },
  {
    "reference": "US-2910",
    "name": "Poinsett State Park",
    "latitude": 33.8007,
    "longitude": -80.5334,
    "grid": "EM93rt",
    "locationDesc": "US-SC",
    "attempts": 193,
    "activations": 181,
    "qsos": 10116
  },
  {
    "reference": "US-2911",
    "name": "Sadlers Creek State Park",
    "latitude": 34.421,
    "longitude": -82.8188,
    "grid": "EM84ok",
    "locationDesc": "US-SC",
    "attempts": 124,
    "activations": 120,
    "qsos": 4708
  },
  {
    "reference": "US-2912",
    "name": "Santee State Park",
    "latitude": 33.5207,
    "longitude": -80.4963,
    "grid": "EM93sm",
    "locationDesc": "US-SC",
    "attempts": 323,
    "activations": 311,
    "qsos": 10245
  },
  {
    "reference": "US-2913",
    "name": "Sesquicentennial State Park",
    "latitude": 34.0993,
    "longitude": -80.9106,
    "grid": "EM94nc",
    "locationDesc": "US-SC",
    "attempts": 673,
    "activations": 624,
    "qsos": 68597
  },
  {
    "reference": "US-2914",
    "name": "Table Rock State Park",
    "latitude": 35.0191,
    "longitude": -82.6919,
    "grid": "EM85pa",
    "locationDesc": "US-SC",
    "attempts": 204,
    "activations": 194,
    "qsos": 7125
  },
  {
    "reference": "US-2915",
    "name": "Woods Bay State Park",
    "latitude": 33.9489,
    "longitude": -79.9769,
    "grid": "FM03aw",
    "locationDesc": "US-SC",
    "attempts": 201,
    "activations": 193,
    "qsos": 5455
  },
  {
    "reference": "US-3872",
    "name": "Charles Towne Landing State Historic Site",
    "latitude": 32.808,
    "longitude": -79.9864,
    "grid": "FM02at",
    "locationDesc": "US-SC",
    "attempts": 340,
    "activations": 322,
    "qsos": 11529
  },
  {
    "reference": "US-3873",
    "name": "Colonial Dorchester State Historic Site",
    "latitude": 32.9492,
    "longitude": -80.1706,
    "grid": "EM92vw",
    "locationDesc": "US-SC",
    "attempts": 716,
    "activations": 675,
    "qsos": 22218
  },
  {
    "reference": "US-3874",
    "name": "H. Cooper Black Jr. Memorial State Recreation Area",
    "latitude": 34.5646,
    "longitude": -79.9271,
    "grid": "FM04an",
    "locationDesc": "US-SC",
    "attempts": 84,
    "activations": 82,
    "qsos": 2933
  },
  {
    "reference": "US-3876",
    "name": "Hampton Plantation State Historic Site",
    "latitude": 33.1946,
    "longitude": -79.4376,
    "grid": "FM03ge",
    "locationDesc": "US-SC",
    "attempts": 60,
    "activations": 60,
    "qsos": 1665
  },
  {
    "reference": "US-3877",
    "name": "Keowee-Toxaway State Park",
    "latitude": 34.9322,
    "longitude": -82.8864,
    "grid": "EM84nw",
    "locationDesc": "US-SC",
    "attempts": 113,
    "activations": 110,
    "qsos": 5263
  },
  {
    "reference": "US-3878",
    "name": "Lake Greenwood State Park",
    "latitude": 34.1879,
    "longitude": -81.9577,
    "grid": "EM94ae",
    "locationDesc": "US-SC",
    "attempts": 247,
    "activations": 231,
    "qsos": 10784
  },
  {
    "reference": "US-3879",
    "name": "Lake Hartwell State Park",
    "latitude": 34.4948,
    "longitude": -83.0316,
    "grid": "EM84ll",
    "locationDesc": "US-SC",
    "attempts": 166,
    "activations": 158,
    "qsos": 6983
  },
  {
    "reference": "US-3880",
    "name": "Lake Wateree State Park",
    "latitude": 34.431,
    "longitude": -80.8704,
    "grid": "EM94nk",
    "locationDesc": "US-SC",
    "attempts": 206,
    "activations": 189,
    "qsos": 12378
  },
  {
    "reference": "US-3881",
    "name": "Battle of Musgrove Mill State Historic Site",
    "latitude": 34.5925,
    "longitude": -81.8525,
    "grid": "EM94bo",
    "locationDesc": "US-SC",
    "attempts": 81,
    "activations": 76,
    "qsos": 2760
  },
  {
    "reference": "US-3882",
    "name": "Oconee Station State Historic Site",
    "latitude": 34.8468,
    "longitude": -83.0718,
    "grid": "EM84lu",
    "locationDesc": "US-SC",
    "attempts": 59,
    "activations": 58,
    "qsos": 1540
  },
  {
    "reference": "US-3883",
    "name": "Redcliffe Plantation State Historic Site",
    "latitude": 33.4176,
    "longitude": -81.8628,
    "grid": "EM93bk",
    "locationDesc": "US-SC",
    "attempts": 83,
    "activations": 82,
    "qsos": 3046
  },
  {
    "reference": "US-3884",
    "name": "Battle of Rivers Bridge State Historic Site",
    "latitude": 33.0502,
    "longitude": -81.0976,
    "grid": "EM93kb",
    "locationDesc": "US-SC",
    "attempts": 63,
    "activations": 63,
    "qsos": 1829
  },
  {
    "reference": "US-3885",
    "name": "Rose Hill Plantation State Historic Site",
    "latitude": 34.6054,
    "longitude": -81.6635,
    "grid": "EM94eo",
    "locationDesc": "US-SC",
    "attempts": 47,
    "activations": 47,
    "qsos": 1201
  },
  {
    "reference": "US-3886",
    "name": "Aiken Gopher Tortoise Heritage Preserve Wildlife Management Area",
    "latitude": 33.5086,
    "longitude": -81.4279,
    "grid": "EM93gm",
    "locationDesc": "US-SC",
    "attempts": 57,
    "activations": 56,
    "qsos": 2734
  },
  {
    "reference": "US-3887",
    "name": "Bear Island Wildlife Management Area",
    "latitude": 32.5931,
    "longitude": -80.4626,
    "grid": "EM92so",
    "locationDesc": "US-SC",
    "attempts": 29,
    "activations": 29,
    "qsos": 1065
  },
  {
    "reference": "US-3888",
    "name": "Bonneau Ferry Wildlife Management Area",
    "latitude": 33.1216,
    "longitude": -79.8738,
    "grid": "FM03bc",
    "locationDesc": "US-SC",
    "attempts": 147,
    "activations": 142,
    "qsos": 5565
  },
  {
    "reference": "US-3889",
    "name": "Botany Bay Plantation Heritage Preserve Wildlife Management Area",
    "latitude": 32.5498,
    "longitude": -80.26,
    "grid": "EM92un",
    "locationDesc": "US-SC",
    "attempts": 65,
    "activations": 65,
    "qsos": 2742
  },
  {
    "reference": "US-3890",
    "name": "Buzzard Roost Heritage Preserve Wildlife Management Area",
    "latitude": 34.7663,
    "longitude": -83.1426,
    "grid": "EM84ks",
    "locationDesc": "US-SC",
    "attempts": 57,
    "activations": 54,
    "qsos": 2119
  },
  {
    "reference": "US-3891",
    "name": "Campbells Crossroads and Angelus Tracts Wildlife Management Area",
    "latitude": 34.6365,
    "longitude": -80.1672,
    "grid": "EM94vp",
    "locationDesc": "US-SC",
    "attempts": 38,
    "activations": 38,
    "qsos": 1285
  },
  {
    "reference": "US-3892",
    "name": "Chestnut Ridge Heritage Preserve Wildlife Management Area",
    "latitude": 35.1305,
    "longitude": -82.2812,
    "grid": "EM85ud",
    "locationDesc": "US-SC",
    "attempts": 73,
    "activations": 71,
    "qsos": 2597
  },
  {
    "reference": "US-3893",
    "name": "Cliff Pitts Wildlife Management Area",
    "latitude": 34.4559,
    "longitude": -82.1907,
    "grid": "EM84vk",
    "locationDesc": "US-SC",
    "attempts": 71,
    "activations": 67,
    "qsos": 2401
  },
  {
    "reference": "US-3894",
    "name": "Draper Wildlife Management Area",
    "latitude": 34.8783,
    "longitude": -81.1856,
    "grid": "EM94jv",
    "locationDesc": "US-SC",
    "attempts": 215,
    "activations": 176,
    "qsos": 7170
  },
  {
    "reference": "US-3895",
    "name": "Eastatoe Creek Heritage Preserve Wildlife Management Area",
    "latitude": 35.0405,
    "longitude": -82.8041,
    "grid": "EM85oa",
    "locationDesc": "US-SC",
    "attempts": 30,
    "activations": 28,
    "qsos": 670
  },
  {
    "reference": "US-3896",
    "name": "Edisto River Wildlife Management Area",
    "latitude": 32.9794,
    "longitude": -80.4016,
    "grid": "EM92tx",
    "locationDesc": "US-SC",
    "attempts": 112,
    "activations": 111,
    "qsos": 3741
  },
  {
    "reference": "US-3897",
    "name": "Fant's Grove Wildlife Management Area",
    "latitude": 34.645,
    "longitude": -82.8217,
    "grid": "EM84op",
    "locationDesc": "US-SC",
    "attempts": 162,
    "activations": 152,
    "qsos": 4261
  },
  {
    "reference": "US-3898",
    "name": "Forty Acre Rock Heritage Preserve Wildlife Management Area",
    "latitude": 34.675,
    "longitude": -80.5237,
    "grid": "EM94rq",
    "locationDesc": "US-SC",
    "attempts": 46,
    "activations": 44,
    "qsos": 2438
  },
  {
    "reference": "US-3899",
    "name": "Great Pee Dee River Heritage Preserve Wildlife Management Area",
    "latitude": 34.3671,
    "longitude": -79.7566,
    "grid": "FM04ci",
    "locationDesc": "US-SC",
    "attempts": 37,
    "activations": 35,
    "qsos": 927
  },
  {
    "reference": "US-3900",
    "name": "Hamilton Ridge Wildlife Management Area",
    "latitude": 32.6183,
    "longitude": -81.3441,
    "grid": "EM92ho",
    "locationDesc": "US-SC",
    "attempts": 29,
    "activations": 29,
    "qsos": 1067
  },
  {
    "reference": "US-3901",
    "name": "Hickory Top Wildlife Management Area",
    "latitude": 33.597,
    "longitude": -80.4668,
    "grid": "EM93so",
    "locationDesc": "US-SC",
    "attempts": 58,
    "activations": 56,
    "qsos": 1601
  },
  {
    "reference": "US-3902",
    "name": "James L. Mason Wildlife Management Area",
    "latitude": 33.6222,
    "longitude": -82.1296,
    "grid": "EM83wo",
    "locationDesc": "US-SC",
    "attempts": 67,
    "activations": 64,
    "qsos": 2554
  },
  {
    "reference": "US-3903",
    "name": "Lewis Ocean Bay Heritage Preserve Wildlife Management Area",
    "latitude": 33.8058,
    "longitude": -78.8909,
    "grid": "FM03nt",
    "locationDesc": "US-SC",
    "attempts": 134,
    "activations": 130,
    "qsos": 4976
  },
  {
    "reference": "US-3904",
    "name": "Longleaf Pine Heritage Preserve Wildlife Management Area",
    "latitude": 34.002,
    "longitude": -80.127,
    "grid": "EM94wa",
    "locationDesc": "US-SC",
    "attempts": 41,
    "activations": 41,
    "qsos": 1135
  },
  {
    "reference": "US-3905",
    "name": "Marsh Wildlife Management Area",
    "latitude": 33.9831,
    "longitude": -79.4709,
    "grid": "FM03gx",
    "locationDesc": "US-SC",
    "attempts": 36,
    "activations": 35,
    "qsos": 1001
  },
  {
    "reference": "US-3906",
    "name": "Old Island Heritage Preserve Wildlife Management Area",
    "latitude": 32.3417,
    "longitude": -80.4768,
    "grid": "EM92si",
    "locationDesc": "US-SC",
    "attempts": 13,
    "activations": 13,
    "qsos": 677
  },
  {
    "reference": "US-3907",
    "name": "Pee Dee Station Site Wildlife Management Area",
    "latitude": 33.9187,
    "longitude": -79.473,
    "grid": "FM03gw",
    "locationDesc": "US-SC",
    "attempts": 37,
    "activations": 37,
    "qsos": 1054
  },
  {
    "reference": "US-3908",
    "name": "Samworth Wildlife Management Area",
    "latitude": 33.4746,
    "longitude": -79.1875,
    "grid": "FM03jl",
    "locationDesc": "US-SC",
    "attempts": 43,
    "activations": 42,
    "qsos": 1147
  },
  {
    "reference": "US-3909",
    "name": "Santee Cooper Tract Wildlife Management Area",
    "latitude": 34.9584,
    "longitude": -81.798,
    "grid": "EM94cx",
    "locationDesc": "US-SC",
    "attempts": 51,
    "activations": 51,
    "qsos": 1455
  },
  {
    "reference": "US-3910",
    "name": "Santee Cooper Wildlife Management Area",
    "latitude": 33.4168,
    "longitude": -80.2934,
    "grid": "EM93uk",
    "locationDesc": "US-SC",
    "attempts": 60,
    "activations": 57,
    "qsos": 1485
  },
  {
    "reference": "US-3911",
    "name": "Stevens Creek Heritage Preserve Wildlife Management Area",
    "latitude": 33.6854,
    "longitude": -82.1625,
    "grid": "EM83wq",
    "locationDesc": "US-SC",
    "attempts": 64,
    "activations": 62,
    "qsos": 2192
  },
  {
    "reference": "US-3912",
    "name": "Thurmond Tract Wildlife Management Area",
    "latitude": 34.7947,
    "longitude": -81.5316,
    "grid": "EM94ft",
    "locationDesc": "US-SC",
    "attempts": 59,
    "activations": 56,
    "qsos": 3186
  },
  {
    "reference": "US-3913",
    "name": "Tillman Sand Ridge Heritage Preserve Wildlife Management Area",
    "latitude": 32.4954,
    "longitude": -81.193,
    "grid": "EM92jl",
    "locationDesc": "US-SC",
    "attempts": 34,
    "activations": 33,
    "qsos": 1046
  },
  {
    "reference": "US-3914",
    "name": "Cathedral Bay Heritage Preserve Wildlife Management Area",
    "latitude": 33.1639,
    "longitude": -81.1653,
    "grid": "EM93kd",
    "locationDesc": "US-SC",
    "attempts": 37,
    "activations": 35,
    "qsos": 1061
  },
  {
    "reference": "US-3916",
    "name": "Congaree Bluffs Heritage Preserve Wildlife Management Area",
    "latitude": 33.749,
    "longitude": -80.705,
    "grid": "EM93pr",
    "locationDesc": "US-SC",
    "attempts": 90,
    "activations": 87,
    "qsos": 4396
  },
  {
    "reference": "US-3917",
    "name": "Little Pee Dee Bay Heritage Preserve Wildlife Management Area",
    "latitude": 34.1432,
    "longitude": -79.2009,
    "grid": "FM04jd",
    "locationDesc": "US-SC",
    "attempts": 55,
    "activations": 55,
    "qsos": 1665
  },
  {
    "reference": "US-3918",
    "name": "Savage Bay Heritage Preserve Wildlife Management Area",
    "latitude": 34.3308,
    "longitude": -80.5228,
    "grid": "EM94rh",
    "locationDesc": "US-SC",
    "attempts": 63,
    "activations": 61,
    "qsos": 2125
  },
  {
    "reference": "US-3919",
    "name": "Congaree Creek Heritage Preserve Wildlife Management Area",
    "latitude": 33.9426,
    "longitude": -81.0324,
    "grid": "EM93lw",
    "locationDesc": "US-SC",
    "attempts": 215,
    "activations": 210,
    "qsos": 8315
  },
  {
    "reference": "US-3921",
    "name": "Pacolet River Heritage Preserve Wildlife Management Area",
    "latitude": 34.9269,
    "longitude": -81.781,
    "grid": "EM94cw",
    "locationDesc": "US-SC",
    "attempts": 67,
    "activations": 67,
    "qsos": 1892
  },
  {
    "reference": "US-4522",
    "name": "Francis Marion National Forest",
    "latitude": 33.0375,
    "longitude": -79.6176,
    "grid": "FM03ea",
    "locationDesc": "US-SC",
    "attempts": 542,
    "activations": 514,
    "qsos": 21632
  },
  {
    "reference": "US-4523",
    "name": "Sumter National Forest",
    "latitude": 34.8059,
    "longitude": -83.1286,
    "grid": "EM84kt",
    "locationDesc": "US-SC",
    "attempts": 401,
    "activations": 384,
    "qsos": 22034
  },
  {
    "reference": "US-4554",
    "name": "Reconstruction Era National Monument",
    "latitude": 32.3885,
    "longitude": -80.5764,
    "grid": "EM92rj",
    "locationDesc": "US-SC",
    "attempts": 53,
    "activations": 51,
    "qsos": 1716
  },
  {
    "reference": "US-4577",
    "name": "Overmountain Victory National Historic Trail",
    "latitude": 35.1597,
    "longitude": -81.4076,
    "grid": "EM95hd",
    "locationDesc": "US-NC,US-SC,US-TN,US-VA",
    "attempts": 1229,
    "activations": 1214,
    "qsos": 47614
  },
  {
    "reference": "US-5485",
    "name": "Harbison State Forest",
    "latitude": 34.0821,
    "longitude": -81.1346,
    "grid": "EM94kb",
    "locationDesc": "US-SC",
    "attempts": 159,
    "activations": 152,
    "qsos": 6752
  },
  {
    "reference": "US-5486",
    "name": "Manchester State Forest",
    "latitude": 33.8199,
    "longitude": -80.5122,
    "grid": "EM93rt",
    "locationDesc": "US-SC",
    "attempts": 123,
    "activations": 122,
    "qsos": 4368
  },
  {
    "reference": "US-5487",
    "name": "Poe Creek State Forest",
    "latitude": 34.9399,
    "longitude": -82.8675,
    "grid": "EM84nw",
    "locationDesc": "US-SC",
    "attempts": 77,
    "activations": 73,
    "qsos": 2308
  },
  {
    "reference": "US-5488",
    "name": "Sand Hills State Forest",
    "latitude": 34.55,
    "longitude": -80.1124,
    "grid": "EM94wn",
    "locationDesc": "US-SC",
    "attempts": 94,
    "activations": 90,
    "qsos": 3876
  },
  {
    "reference": "US-5489",
    "name": "Wee Tee State Forest",
    "latitude": 33.4032,
    "longitude": -79.773,
    "grid": "FM03cj",
    "locationDesc": "US-SC",
    "attempts": 34,
    "activations": 33,
    "qsos": 1105
  },
  {
    "reference": "US-8145",
    "name": "McCalla Wildlife Management Area",
    "latitude": 34.1582,
    "longitude": -82.669,
    "grid": "EM84pd",
    "locationDesc": "US-SC",
    "attempts": 38,
    "activations": 37,
    "qsos": 1288
  },
  {
    "reference": "US-8146",
    "name": "Ditch Pond Heritage Preserve Wildlife Management Area",
    "latitude": 33.4154,
    "longitude": -81.4713,
    "grid": "EM93gj",
    "locationDesc": "US-SC",
    "attempts": 52,
    "activations": 51,
    "qsos": 2705
  },
  {
    "reference": "US-8147",
    "name": "Altamaha Towne Heritage Preserve Wildlife Management Area",
    "latitude": 32.3471,
    "longitude": -80.8773,
    "grid": "EM92ni",
    "locationDesc": "US-SC",
    "attempts": 57,
    "activations": 56,
    "qsos": 1512
  },
  {
    "reference": "US-8148",
    "name": "Lighthouse Inlet Heritage Preserve Wildlife Management Area",
    "latitude": 32.6858,
    "longitude": -79.8873,
    "grid": "FM02bq",
    "locationDesc": "US-SC",
    "attempts": 82,
    "activations": 80,
    "qsos": 2821
  },
  {
    "reference": "US-8149",
    "name": "Oak Lea Wildlife Management Area",
    "latitude": 33.6943,
    "longitude": -80.4222,
    "grid": "EM93sq",
    "locationDesc": "US-SC",
    "attempts": 56,
    "activations": 56,
    "qsos": 2180
  },
  {
    "reference": "US-8150",
    "name": "Bald Rock Heritage Preserve Natural Area",
    "latitude": 35.0833,
    "longitude": -82.6263,
    "grid": "EM85qb",
    "locationDesc": "US-SC",
    "attempts": 53,
    "activations": 53,
    "qsos": 1105
  },
  {
    "reference": "US-8151",
    "name": "Woodbury Wildlife Management Area",
    "latitude": 33.8057,
    "longitude": -79.2999,
    "grid": "FM03it",
    "locationDesc": "US-SC",
    "attempts": 35,
    "activations": 34,
    "qsos": 1013
  },
  {
    "reference": "US-8152",
    "name": "Glassy Mountain Heritage Preserve Wildlife Management Area",
    "latitude": 34.8975,
    "longitude": -82.6612,
    "grid": "EM84qv",
    "locationDesc": "US-SC",
    "attempts": 70,
    "activations": 65,
    "qsos": 1930
  },
  {
    "reference": "US-8153",
    "name": "Herbert Kirsh Wildlife Management Area",
    "latitude": 34.8856,
    "longitude": -81.3318,
    "grid": "EM94iv",
    "locationDesc": "US-SC",
    "attempts": 68,
    "activations": 67,
    "qsos": 3365
  },
  {
    "reference": "US-8154",
    "name": "Worth Mountain Wildlife Management Area",
    "latitude": 34.9389,
    "longitude": -81.4609,
    "grid": "EM94gw",
    "locationDesc": "US-SC",
    "attempts": 91,
    "activations": 89,
    "qsos": 5808
  },
  {
    "reference": "US-9192",
    "name": "Henderson Wildlife Management Area",
    "latitude": 33.6076,
    "longitude": -81.7419,
    "grid": "EM93do",
    "locationDesc": "US-SC",
    "attempts": 75,
    "activations": 73,
    "qsos": 3458
  },
  {
    "reference": "US-9193",
    "name": "Janet Harrison Pond Wildlife Management Area",
    "latitude": 33.8241,
    "longitude": -81.5858,
    "grid": "EM93et",
    "locationDesc": "US-SC",
    "attempts": 43,
    "activations": 41,
    "qsos": 2116
  },
  {
    "reference": "US-9195",
    "name": "South Bluff Wildlife Management Area",
    "latitude": 32.4724,
    "longitude": -80.5918,
    "grid": "EM92ql",
    "locationDesc": "US-SC",
    "attempts": 28,
    "activations": 28,
    "qsos": 850
  },
  {
    "reference": "US-9197",
    "name": "Victoria Bluff Wildlife Management Area",
    "latitude": 32.2653,
    "longitude": -80.8223,
    "grid": "EM92og",
    "locationDesc": "US-SC",
    "attempts": 73,
    "activations": 70,
    "qsos": 1954
  },
  {
    "reference": "US-9198",
    "name": "Childsbury Towne Wildlife Management Area",
    "latitude": 33.0928,
    "longitude": -79.9354,
    "grid": "FM03ac",
    "locationDesc": "US-SC",
    "attempts": 150,
    "activations": 150,
    "qsos": 5194
  },
  {
    "reference": "US-9199",
    "name": "Hatchery Wildlife Management Area",
    "latitude": 33.2684,
    "longitude": -80.1032,
    "grid": "EM93wg",
    "locationDesc": "US-SC",
    "attempts": 192,
    "activations": 188,
    "qsos": 9495
  },
  {
    "reference": "US-9200",
    "name": "Dungannon Plantation Wildlife Management Area",
    "latitude": 32.7475,
    "longitude": -80.195,
    "grid": "EM92vr",
    "locationDesc": "US-SC",
    "attempts": 67,
    "activations": 65,
    "qsos": 2940
  },
  {
    "reference": "US-9201",
    "name": "Fort Lamar Wildlife Management Area",
    "latitude": 32.7047,
    "longitude": -79.9457,
    "grid": "FM02aq",
    "locationDesc": "US-SC",
    "attempts": 105,
    "activations": 99,
    "qsos": 3932
  },
  {
    "reference": "US-9202",
    "name": "Santee Coastal Reserve Wildlife Management Area",
    "latitude": 33.1537,
    "longitude": -79.3668,
    "grid": "FM03hd",
    "locationDesc": "US-SC",
    "attempts": 35,
    "activations": 35,
    "qsos": 855
  },
  {
    "reference": "US-9203",
    "name": "Palmetto State Trail",
    "latitude": 33.0558,
    "longitude": -79.6956,
    "grid": "FM03db",
    "locationDesc": "US-SC",
    "attempts": 703,
    "activations": 688,
    "qsos": 26537
  },
  {
    "reference": "US-9204",
    "name": "McBee Wildlife Management Area",
    "latitude": 34.4073,
    "longitude": -80.2922,
    "grid": "EM94uj",
    "locationDesc": "US-SC",
    "attempts": 28,
    "activations": 28,
    "qsos": 664
  },
  {
    "reference": "US-9205",
    "name": "Bennett's Bay Wildlife Management Area",
    "latitude": 33.6373,
    "longitude": -80.1109,
    "grid": "EM93wp",
    "locationDesc": "US-SC",
    "attempts": 29,
    "activations": 29,
    "qsos": 792
  },
  {
    "reference": "US-9206",
    "name": "Donnelley Wildlife Management Area",
    "latitude": 32.7048,
    "longitude": -80.6042,
    "grid": "EM92qq",
    "locationDesc": "US-SC",
    "attempts": 41,
    "activations": 41,
    "qsos": 1252
  },
  {
    "reference": "US-9207",
    "name": "Segars-McKinnon Wildlife Management Area",
    "latitude": 34.3711,
    "longitude": -80.1125,
    "grid": "EM94wi",
    "locationDesc": "US-SC",
    "attempts": 29,
    "activations": 29,
    "qsos": 875
  },
  {
    "reference": "US-9208",
    "name": "Santee-Delta Wildlife Management Area",
    "latitude": 33.2047,
    "longitude": -79.3876,
    "grid": "FM03he",
    "locationDesc": "US-SC",
    "attempts": 52,
    "activations": 51,
    "qsos": 1543
  },
  {
    "reference": "US-9209",
    "name": "Ashmore Wildlife Management Area",
    "latitude": 35.0818,
    "longitude": -82.5839,
    "grid": "EM85qb",
    "locationDesc": "US-SC",
    "attempts": 58,
    "activations": 58,
    "qsos": 1208
  },
  {
    "reference": "US-9210",
    "name": "Bunched Arrowhead Wildlife Management Area",
    "latitude": 34.9967,
    "longitude": -82.4029,
    "grid": "EM84tx",
    "locationDesc": "US-SC",
    "attempts": 105,
    "activations": 100,
    "qsos": 3024
  },
  {
    "reference": "US-9211",
    "name": "Eva Russell Chandler Wildlife Management Area",
    "latitude": 35.0841,
    "longitude": -82.6075,
    "grid": "EM85qc",
    "locationDesc": "US-SC",
    "attempts": 54,
    "activations": 52,
    "qsos": 1608
  },
  {
    "reference": "US-9212",
    "name": "Tall Pines Wildlife Management Area",
    "latitude": 35.0646,
    "longitude": -82.5681,
    "grid": "EM85rb",
    "locationDesc": "US-SC",
    "attempts": 75,
    "activations": 75,
    "qsos": 2153
  },
  {
    "reference": "US-9213",
    "name": "Watson-Cooper Wildlife Management Area",
    "latitude": 35.1028,
    "longitude": -82.6911,
    "grid": "EM85pc",
    "locationDesc": "US-SC",
    "attempts": 25,
    "activations": 24,
    "qsos": 849
  },
  {
    "reference": "US-9214",
    "name": "Palachucola Wildlife Management Area",
    "latitude": 32.592,
    "longitude": -81.2825,
    "grid": "EM92io",
    "locationDesc": "US-SC",
    "attempts": 32,
    "activations": 31,
    "qsos": 887
  },
  {
    "reference": "US-9215",
    "name": "Webb Wildlife Center Wildlife Management Area",
    "latitude": 32.6212,
    "longitude": -81.2833,
    "grid": "EM92io",
    "locationDesc": "US-SC",
    "attempts": 31,
    "activations": 30,
    "qsos": 854
  },
  {
    "reference": "US-9216",
    "name": "Cartwheel Bay Wildlife Management Area",
    "latitude": 34.1528,
    "longitude": -79.0781,
    "grid": "FM04ld",
    "locationDesc": "US-SC",
    "attempts": 30,
    "activations": 30,
    "qsos": 1049
  },
  {
    "reference": "US-9217",
    "name": "Waccamaw River Heritage Preserve Wildlife Management Area",
    "latitude": 33.921,
    "longitude": -78.7255,
    "grid": "FM03pw",
    "locationDesc": "US-SC",
    "attempts": 85,
    "activations": 84,
    "qsos": 2418
  },
  {
    "reference": "US-9218",
    "name": "Liberty Hill Wildlife Management Area",
    "latitude": 34.4525,
    "longitude": -80.8475,
    "grid": "EM94nk",
    "locationDesc": "US-SC",
    "attempts": 28,
    "activations": 27,
    "qsos": 1200
  },
  {
    "reference": "US-9219",
    "name": "Belfast Wildlife Management Area",
    "latitude": 34.3206,
    "longitude": -81.8475,
    "grid": "EM94bh",
    "locationDesc": "US-SC",
    "attempts": 90,
    "activations": 90,
    "qsos": 3852
  },
  {
    "reference": "US-9220",
    "name": "Clinton Reservoir Tract Wildlife Management Area",
    "latitude": 34.5514,
    "longitude": -81.9093,
    "grid": "EM94bn",
    "locationDesc": "US-SC",
    "attempts": 45,
    "activations": 45,
    "qsos": 1284
  },
  {
    "reference": "US-9221",
    "name": "Gray Court Tract Wildlife Management Area",
    "latitude": 34.5956,
    "longitude": -82.0994,
    "grid": "EM84wo",
    "locationDesc": "US-SC",
    "attempts": 52,
    "activations": 46,
    "qsos": 1343
  },
  {
    "reference": "US-9222",
    "name": "Lynchburg Savanna Wildlife Management Area",
    "latitude": 34.0438,
    "longitude": -80.1373,
    "grid": "EM94wb",
    "locationDesc": "US-SC",
    "attempts": 35,
    "activations": 34,
    "qsos": 834
  },
  {
    "reference": "US-9223",
    "name": "Peachtree Rock Wildlife Management Area",
    "latitude": 33.8283,
    "longitude": -81.2024,
    "grid": "EM93jt",
    "locationDesc": "US-SC",
    "attempts": 81,
    "activations": 80,
    "qsos": 2584
  },
  {
    "reference": "US-9224",
    "name": "Lake Wallace Wildlife Management Area",
    "latitude": 34.6304,
    "longitude": -79.6801,
    "grid": "FM04dp",
    "locationDesc": "US-SC",
    "attempts": 35,
    "activations": 32,
    "qsos": 871
  },
  {
    "reference": "US-9225",
    "name": "Brasstown Creek Wildlife Management Area",
    "latitude": 34.671,
    "longitude": -83.317,
    "grid": "EM84iq",
    "locationDesc": "US-SC",
    "attempts": 40,
    "activations": 37,
    "qsos": 923
  },
  {
    "reference": "US-9226",
    "name": "Jocassee Gorges Wildlife Management Area",
    "latitude": 34.9727,
    "longitude": -82.8601,
    "grid": "EM84nx",
    "locationDesc": "US-SC",
    "attempts": 66,
    "activations": 60,
    "qsos": 1697
  },
  {
    "reference": "US-9227",
    "name": "Nine Times Wildlife Management Area",
    "latitude": 34.9504,
    "longitude": -82.8088,
    "grid": "EM84ow",
    "locationDesc": "US-SC",
    "attempts": 50,
    "activations": 48,
    "qsos": 1396
  },
  {
    "reference": "US-9228",
    "name": "Peters Creek Wildlife Management Area",
    "latitude": 34.9963,
    "longitude": -81.8724,
    "grid": "EM94bx",
    "locationDesc": "US-SC",
    "attempts": 57,
    "activations": 55,
    "qsos": 1690
  },
  {
    "reference": "US-9229",
    "name": "Wild Turkey Wildlife Management Area",
    "latitude": 34.7111,
    "longitude": -81.5392,
    "grid": "EM94fr",
    "locationDesc": "US-SC",
    "attempts": 27,
    "activations": 26,
    "qsos": 717
  },
  {
    "reference": "US-9230",
    "name": "Rock Hill Blackjacks Wildlife Management Area",
    "latitude": 34.9041,
    "longitude": -81.0229,
    "grid": "EM94lv",
    "locationDesc": "US-SC",
    "attempts": 102,
    "activations": 100,
    "qsos": 4653
  },
  {
    "reference": "US-9758",
    "name": "Chattooga National Wild and Scenic River",
    "latitude": 34.9402,
    "longitude": -83.1928,
    "grid": "EM84jw",
    "locationDesc": "US-GA,US-NC,US-SC",
    "attempts": 106,
    "activations": 103,
    "qsos": 4278
  },
  {
    "reference": "US-9759",
    "name": "May Forest State Park",
    "latitude": 32.7488,
    "longitude": -79.9048,
    "grid": "FM02br",
    "locationDesc": "US-SC",
    "attempts": 60,
    "activations": 59,
    "qsos": 1861
  },
  {
    "reference": "US-10414",
    "name": "Wateree Heritage Preserve Wildlife Management Area",
    "latitude": 33.9437,
    "longitude": -80.6555,
    "grid": "EM93qw",
    "locationDesc": "US-SC",
    "attempts": 54,
    "activations": 53,
    "qsos": 3412
  },
  {
    "reference": "US-10415",
    "name": "Landsford Canal Forest Legacy Area Wildlife Management Area",
    "latitude": 34.7692,
    "longitude": -80.8855,
    "grid": "EM94ns",
    "locationDesc": "US-SC",
    "attempts": 66,
    "activations": 66,
    "qsos": 3099
  },
  {
    "reference": "US-10465",
    "name": "Shealy's Pond Heritage Preserve Wildlife Management Area",
    "latitude": 33.8636,
    "longitude": -81.2363,
    "grid": "EM93ju",
    "locationDesc": "US-SC",
    "attempts": 73,
    "activations": 73,
    "qsos": 2521
  },
  {
    "reference": "US-10467",
    "name": "James Ross Wildlife Reservation Wildlife Management Area",
    "latitude": 34.9597,
    "longitude": -81.2815,
    "grid": "EM94ix",
    "locationDesc": "US-SC",
    "attempts": 62,
    "activations": 56,
    "qsos": 5833
  },
  {
    "reference": "US-10468",
    "name": "McConnells Tract Wildlife Management Area",
    "latitude": 34.8874,
    "longitude": -81.2742,
    "grid": "EM94iv",
    "locationDesc": "US-SC",
    "attempts": 27,
    "activations": 26,
    "qsos": 2332
  },
  {
    "reference": "US-10470",
    "name": "Hanging Rock Battleground State Historical Park",
    "latitude": 34.5704,
    "longitude": -80.678,
    "grid": "EM94pn",
    "locationDesc": "US-SC",
    "attempts": 28,
    "activations": 28,
    "qsos": 1351
  },
  {
    "reference": "US-10622",
    "name": "Fish Dam Ford Heritage Preserve Wildlife Management Area",
    "latitude": 34.5981,
    "longitude": -81.4179,
    "grid": "EM94go",
    "locationDesc": "US-SC",
    "attempts": 17,
    "activations": 17,
    "qsos": 1039
  },
  {
    "reference": "US-10782",
    "name": "Lake John D. Long State Fishing Lake",
    "latitude": 34.772,
    "longitude": -81.5075,
    "grid": "EM94fs",
    "locationDesc": "US-SC",
    "attempts": 43,
    "activations": 43,
    "qsos": 2332
  },
  {
    "reference": "US-11995",
    "name": "Fort Frederick Heritage Preserve Wildlife Management Area",
    "latitude": 32.3847,
    "longitude": -80.6827,
    "grid": "EM92pj",
    "locationDesc": "US-SC",
    "attempts": 63,
    "activations": 62,
    "qsos": 2271
  },
  {
    "reference": "US-12107",
    "name": "Lake Cherokee State Fishing Lake",
    "latitude": 35.0418,
    "longitude": -81.571,
    "grid": "EM95fb",
    "locationDesc": "US-SC",
    "attempts": 96,
    "activations": 96,
    "qsos": 5357
  },
  {
    "reference": "US-12108",
    "name": "Lake Thicketty State Fishing Lake",
    "latitude": 35.0792,
    "longitude": -81.7782,
    "grid": "EM95cb",
    "locationDesc": "US-SC",
    "attempts": 183,
    "activations": 181,
    "qsos": 9150
  },
  {
    "reference": "US-12589",
    "name": "Beaverdam Creek Waterfowl Management Area Wildlife Management Area",
    "latitude": 34.5353,
    "longitude": -82.8969,
    "grid": "EM84nm",
    "locationDesc": "US-SC",
    "attempts": 27,
    "activations": 27,
    "qsos": 893
  },
  {
    "reference": "US-13016",
    "name": "Pine Island State Park",
    "latitude": 34.0685,
    "longitude": -81.2555,
    "grid": "EM94ib",
    "locationDesc": "US-SC",
    "attempts": 40,
    "activations": 40,
    "qsos": 2720
  },
  {
    "reference": "US-13198",
    "name": "Black River State Park",
    "latitude": 33.5704,
    "longitude": -79.7953,
    "grid": "FM03cn",
    "locationDesc": "US-SC",
    "attempts": 12,
    "activations": 12,
    "qsos": 521
  },
  {
    "reference": "US-13257",
    "name": "Coosawhatchie Heritage Preserve Wildlife Management Area",
    "latitude": 32.6916,
    "longitude": -80.9193,
    "grid": "EM92mq",
    "locationDesc": "US-SC",
    "attempts": 4,
    "activations": 4,
    "qsos": 119
  }
]
