[
  {
    "reference": "US-0228",
    "name": "Stewart B. Mckinney National Wildlife Refuge",
    "latitude": 41.2861,
    "longitude": -72.4716,
    "grid": "FN31sg",
    "locationDesc": "US-CT",
    "attempts": 143,
    "activations": 140,
    "qsos": 6417
  },
  {
    "reference": "US-0329",
    "name": "Silvio O Conte National Wildlife Refuge",
    "latitude": 44.7678,
    "longitude": -71.7018,
    "grid": "FN44ds",
    "locationDesc": "US-CT,US-MA,US-NH,US-VT",
    "attempts": 304,
    "activations": 299,
    "qsos": 11932
  },
  {
    "reference": "US-0873",
    "name": "Weir Farm National Historic Site",
    "latitude": 41.2564,
    "longitude": -73.4564,
    "grid": "FN31gg",
    "locationDesc": "US-CT",
    "attempts": 57,
    "activations": 52,
    "qsos": 1424
  },
  {
    "reference": "US-0881",
    "name": "Eightmile National Wild and Scenic River",
    "latitude": 41.4805,
    "longitude": -72.3412,
    "grid": "FN31tl",
    "locationDesc": "US-CT",
    "attempts": 85,
    "activations": 84,
    "qsos": 3341
  },
  {
    "reference": "US-0882",
    "name": "Farmington National Wild and Scenic River",
    "latitude": 41.8745,
    "longitude": -72.9672,
    "grid": "FN31mu",
    "locationDesc": "US-CT",
    "attempts": 513,
    "activations": 506,
    "qsos": 24845
  },
  {
    "reference": "US-1645",
    "name": "Above All State Park",
    "latitude": 41.7273,
    "longitude": -73.3539,
    "grid": "FN31hr",
    "locationDesc": "US-CT",
    "attempts": 27,
    "activations": 26,
    "qsos": 884
  },
  {
    "reference": "US-1646",
    "name": "Beaver Brook State Park",
    "latitude": 41.7303,
    "longitude": -72.1262,
    "grid": "FN31wr",
    "locationDesc": "US-CT",
    "attempts": 30,
    "activations": 29,
    "qsos": 963
  },
  {
    "reference": "US-1647",
    "name": "Bennett's Pond State Park",
    "latitude": 41.3288,
    "longitude": -73.4804,
    "grid": "FN31gh",
    "locationDesc": "US-CT",
    "attempts": 112,
    "activations": 109,
    "qsos": 3915
  },
  {
    "reference": "US-1648",
    "name": "Bigelow Hollow State Park",
    "latitude": 41.9918,
    "longitude": -72.1322,
    "grid": "FN31wx",
    "locationDesc": "US-CT",
    "attempts": 62,
    "activations": 57,
    "qsos": 1798
  },
  {
    "reference": "US-1649",
    "name": "Black Rock State Park",
    "latitude": 41.6542,
    "longitude": -73.0988,
    "grid": "FN31kp",
    "locationDesc": "US-CT",
    "attempts": 106,
    "activations": 104,
    "qsos": 5376
  },
  {
    "reference": "US-1650",
    "name": "Bluff Point State Park",
    "latitude": 41.3357,
    "longitude": -72.0332,
    "grid": "FN31xi",
    "locationDesc": "US-CT",
    "attempts": 176,
    "activations": 173,
    "qsos": 7137
  },
  {
    "reference": "US-1651",
    "name": "Bolton Notch State Park",
    "latitude": 41.7896,
    "longitude": -72.4501,
    "grid": "FN31ss",
    "locationDesc": "US-CT",
    "attempts": 101,
    "activations": 93,
    "qsos": 2994
  },
  {
    "reference": "US-1652",
    "name": "Brainard Homestead State Park",
    "latitude": 41.4667,
    "longitude": -72.4624,
    "grid": "FN31sl",
    "locationDesc": "US-CT",
    "attempts": 18,
    "activations": 18,
    "qsos": 697
  },
  {
    "reference": "US-1653",
    "name": "Burr Pond State Park",
    "latitude": 41.8705,
    "longitude": -73.0925,
    "grid": "FN31ku",
    "locationDesc": "US-CT",
    "attempts": 57,
    "activations": 57,
    "qsos": 2006
  },
  {
    "reference": "US-1654",
    "name": "Camp Columbia State Park",
    "latitude": 41.6801,
    "longitude": -73.2242,
    "grid": "FN31jq",
    "locationDesc": "US-CT",
    "attempts": 140,
    "activations": 138,
    "qsos": 4952
  },
  {
    "reference": "US-1655",
    "name": "Campbell Falls State Park",
    "latitude": 42.0422,
    "longitude": -73.226,
    "grid": "FN32jb",
    "locationDesc": "US-CT",
    "attempts": 26,
    "activations": 26,
    "qsos": 856
  },
  {
    "reference": "US-1656",
    "name": "Chatfield Hollow State Park",
    "latitude": 41.3659,
    "longitude": -72.5859,
    "grid": "FN31qi",
    "locationDesc": "US-CT",
    "attempts": 73,
    "activations": 70,
    "qsos": 2478
  },
  {
    "reference": "US-1657",
    "name": "Collis P. Huntington State Park",
    "latitude": 41.3318,
    "longitude": -73.3593,
    "grid": "FN31hh",
    "locationDesc": "US-CT",
    "attempts": 151,
    "activations": 142,
    "qsos": 6621
  },
  {
    "reference": "US-1658",
    "name": "Connecticut Valley Railroad State Park",
    "latitude": 41.3505,
    "longitude": -72.4048,
    "grid": "FN31ti",
    "locationDesc": "US-CT",
    "attempts": 39,
    "activations": 38,
    "qsos": 1335
  },
  {
    "reference": "US-1659",
    "name": "Dart Island State Park",
    "latitude": 41.5528,
    "longitude": -72.5628,
    "grid": "FN31rn",
    "locationDesc": "US-CT",
    "attempts": 15,
    "activations": 15,
    "qsos": 459
  },
  {
    "reference": "US-1660",
    "name": "Day Pond State Park",
    "latitude": 41.5565,
    "longitude": -72.4172,
    "grid": "FN31sn",
    "locationDesc": "US-CT",
    "attempts": 116,
    "activations": 110,
    "qsos": 3482
  },
  {
    "reference": "US-1661",
    "name": "Dennis Hill State Park",
    "latitude": 41.949,
    "longitude": -73.1989,
    "grid": "FN31jw",
    "locationDesc": "US-CT",
    "attempts": 81,
    "activations": 76,
    "qsos": 2897
  },
  {
    "reference": "US-1662",
    "name": "Devil's Hopyard State Park",
    "latitude": 41.485,
    "longitude": -72.3373,
    "grid": "FN31tl",
    "locationDesc": "US-CT",
    "attempts": 100,
    "activations": 96,
    "qsos": 3656
  },
  {
    "reference": "US-1663",
    "name": "Dinosaur State Park",
    "latitude": 41.6519,
    "longitude": -72.6564,
    "grid": "FN31qp",
    "locationDesc": "US-CT",
    "attempts": 173,
    "activations": 171,
    "qsos": 6349
  },
  {
    "reference": "US-1664",
    "name": "Eagle Landing State Park",
    "latitude": 41.4497,
    "longitude": -72.4654,
    "grid": "FN31sk",
    "locationDesc": "US-CT",
    "attempts": 58,
    "activations": 56,
    "qsos": 1463
  },
  {
    "reference": "US-1665",
    "name": "Farm River State Park",
    "latitude": 41.2561,
    "longitude": -72.8567,
    "grid": "FN31ng",
    "locationDesc": "US-CT",
    "attempts": 31,
    "activations": 30,
    "qsos": 1172
  },
  {
    "reference": "US-1666",
    "name": "Fort Griswold Battlefield State Park",
    "latitude": 41.3539,
    "longitude": -72.0799,
    "grid": "FN31xi",
    "locationDesc": "US-CT",
    "attempts": 86,
    "activations": 85,
    "qsos": 3305
  },
  {
    "reference": "US-1667",
    "name": "Fort Trumbull State Park",
    "latitude": 41.3437,
    "longitude": -72.0934,
    "grid": "FN31wi",
    "locationDesc": "US-CT",
    "attempts": 78,
    "activations": 77,
    "qsos": 2775
  },
  {
    "reference": "US-1668",
    "name": "Gardner Lake State Park",
    "latitude": 41.5001,
    "longitude": -72.2266,
    "grid": "FN31vm",
    "locationDesc": "US-CT",
    "attempts": 66,
    "activations": 64,
    "qsos": 1790
  },
  {
    "reference": "US-1669",
    "name": "Gay City State Park",
    "latitude": 41.7199,
    "longitude": -72.4367,
    "grid": "FN31sr",
    "locationDesc": "US-CT",
    "attempts": 120,
    "activations": 114,
    "qsos": 4253
  },
  {
    "reference": "US-1670",
    "name": "George Dudley Seymour State Park",
    "latitude": 41.5083,
    "longitude": -72.5437,
    "grid": "FN31rm",
    "locationDesc": "US-CT",
    "attempts": 30,
    "activations": 30,
    "qsos": 683
  },
  {
    "reference": "US-1671",
    "name": "George Waldo State Park",
    "latitude": 41.4622,
    "longitude": -73.2898,
    "grid": "FN31il",
    "locationDesc": "US-CT",
    "attempts": 45,
    "activations": 45,
    "qsos": 1026
  },
  {
    "reference": "US-1672",
    "name": "Gillette Castle State Park",
    "latitude": 41.4234,
    "longitude": -72.4271,
    "grid": "FN31sk",
    "locationDesc": "US-CT",
    "attempts": 91,
    "activations": 90,
    "qsos": 3610
  },
  {
    "reference": "US-1673",
    "name": "Haddam Island State Park",
    "latitude": 41.4921,
    "longitude": -72.5183,
    "grid": "FN31rl",
    "locationDesc": "US-CT",
    "attempts": 14,
    "activations": 14,
    "qsos": 306
  },
  {
    "reference": "US-1674",
    "name": "Haddam Meadows State Park",
    "latitude": 41.4811,
    "longitude": -72.5097,
    "grid": "FN31rl",
    "locationDesc": "US-CT",
    "attempts": 80,
    "activations": 79,
    "qsos": 2262
  },
  {
    "reference": "US-1675",
    "name": "Haley Farm State Park",
    "latitude": 41.3319,
    "longitude": -72.0098,
    "grid": "FN31xh",
    "locationDesc": "US-CT",
    "attempts": 150,
    "activations": 146,
    "qsos": 3527
  },
  {
    "reference": "US-1676",
    "name": "Hammonasset Beach State Beach",
    "latitude": 41.2668,
    "longitude": -72.5589,
    "grid": "FN31rg",
    "locationDesc": "US-CT",
    "attempts": 230,
    "activations": 223,
    "qsos": 10652
  },
  {
    "reference": "US-1677",
    "name": "Harkness Memorial State Park",
    "latitude": 41.3073,
    "longitude": -72.1151,
    "grid": "FN31wh",
    "locationDesc": "US-CT",
    "attempts": 130,
    "activations": 127,
    "qsos": 7244
  },
  {
    "reference": "US-1678",
    "name": "Haystack Mountain State Park",
    "latitude": 42.0047,
    "longitude": -73.2083,
    "grid": "FN32ja",
    "locationDesc": "US-CT",
    "attempts": 56,
    "activations": 51,
    "qsos": 1534
  },
  {
    "reference": "US-1679",
    "name": "Higganum Reservoir State Park",
    "latitude": 41.4869,
    "longitude": -72.5626,
    "grid": "FN31rl",
    "locationDesc": "US-CT",
    "attempts": 40,
    "activations": 40,
    "qsos": 1011
  },
  {
    "reference": "US-1680",
    "name": "Hopemead State Park",
    "latitude": 41.5179,
    "longitude": -72.2146,
    "grid": "FN31vm",
    "locationDesc": "US-CT",
    "attempts": 30,
    "activations": 29,
    "qsos": 854
  },
  {
    "reference": "US-1681",
    "name": "Hopeville Pond State Park",
    "latitude": 41.6087,
    "longitude": -71.9222,
    "grid": "FN41ao",
    "locationDesc": "US-CT",
    "attempts": 124,
    "activations": 120,
    "qsos": 4483
  },
  {
    "reference": "US-1682",
    "name": "Housatonic Meadows State Park",
    "latitude": 41.8397,
    "longitude": -73.3812,
    "grid": "FN31hu",
    "locationDesc": "US-CT",
    "attempts": 46,
    "activations": 44,
    "qsos": 1387
  },
  {
    "reference": "US-1683",
    "name": "Hurd State Park",
    "latitude": 41.5217,
    "longitude": -72.5412,
    "grid": "FN31rm",
    "locationDesc": "US-CT",
    "attempts": 116,
    "activations": 116,
    "qsos": 3167
  },
  {
    "reference": "US-1684",
    "name": "Indian Well State Park",
    "latitude": 41.3416,
    "longitude": -73.124,
    "grid": "FN31ki",
    "locationDesc": "US-CT",
    "attempts": 130,
    "activations": 121,
    "qsos": 4190
  },
  {
    "reference": "US-1685",
    "name": "John A. Minetto State Park",
    "latitude": 41.8838,
    "longitude": -73.1697,
    "grid": "FN31jv",
    "locationDesc": "US-CT",
    "attempts": 38,
    "activations": 36,
    "qsos": 1022
  },
  {
    "reference": "US-1686",
    "name": "Kent Falls State Park",
    "latitude": 41.7768,
    "longitude": -73.418,
    "grid": "FN31gs",
    "locationDesc": "US-CT",
    "attempts": 35,
    "activations": 34,
    "qsos": 974
  },
  {
    "reference": "US-1687",
    "name": "Kettletown State Park",
    "latitude": 41.4302,
    "longitude": -73.2015,
    "grid": "FN31jk",
    "locationDesc": "US-CT",
    "attempts": 59,
    "activations": 55,
    "qsos": 1976
  },
  {
    "reference": "US-1688",
    "name": "Killingly Pond State Park",
    "latitude": 41.8627,
    "longitude": -71.7963,
    "grid": "FN41cu",
    "locationDesc": "US-CT",
    "attempts": 36,
    "activations": 35,
    "qsos": 912
  },
  {
    "reference": "US-1689",
    "name": "Lake Waramaug State Park",
    "latitude": 41.7081,
    "longitude": -73.3842,
    "grid": "FN31hq",
    "locationDesc": "US-CT",
    "attempts": 43,
    "activations": 41,
    "qsos": 1537
  },
  {
    "reference": "US-1690",
    "name": "Lamentation Mountain State Park",
    "latitude": 41.5786,
    "longitude": -72.7584,
    "grid": "FN31on",
    "locationDesc": "US-CT",
    "attempts": 14,
    "activations": 14,
    "qsos": 461
  },
  {
    "reference": "US-1691",
    "name": "Lovers Leap State Park",
    "latitude": 41.5429,
    "longitude": -73.4086,
    "grid": "FN31hn",
    "locationDesc": "US-CT",
    "attempts": 125,
    "activations": 121,
    "qsos": 3944
  },
  {
    "reference": "US-1692",
    "name": "Macedonia Brook State Park",
    "latitude": 41.7662,
    "longitude": -73.4951,
    "grid": "FN31gs",
    "locationDesc": "US-CT",
    "attempts": 32,
    "activations": 32,
    "qsos": 815
  },
  {
    "reference": "US-1693",
    "name": "Machimoodus State Park",
    "latitude": 41.5011,
    "longitude": -72.4791,
    "grid": "FN31sm",
    "locationDesc": "US-CT",
    "attempts": 78,
    "activations": 78,
    "qsos": 2192
  },
  {
    "reference": "US-1694",
    "name": "Mansfield Hollow State Park",
    "latitude": 41.7619,
    "longitude": -72.1785,
    "grid": "FN31vs",
    "locationDesc": "US-CT",
    "attempts": 123,
    "activations": 108,
    "qsos": 3267
  },
  {
    "reference": "US-1695",
    "name": "Mashamoquet Brook State Park",
    "latitude": 41.8488,
    "longitude": -71.9846,
    "grid": "FN41au",
    "locationDesc": "US-CT",
    "attempts": 40,
    "activations": 39,
    "qsos": 1160
  },
  {
    "reference": "US-1696",
    "name": "Mianus River State Park",
    "latitude": 41.0821,
    "longitude": -73.5831,
    "grid": "FN31fb",
    "locationDesc": "US-CT",
    "attempts": 62,
    "activations": 58,
    "qsos": 1686
  },
  {
    "reference": "US-1697",
    "name": "Millers Pond State Park",
    "latitude": 41.4804,
    "longitude": -72.6291,
    "grid": "FN31ql",
    "locationDesc": "US-CT",
    "attempts": 70,
    "activations": 68,
    "qsos": 2545
  },
  {
    "reference": "US-1698",
    "name": "Minnie Island State Park",
    "latitude": 41.5058,
    "longitude": -72.2218,
    "grid": "FN31vm",
    "locationDesc": "US-CT",
    "attempts": 23,
    "activations": 23,
    "qsos": 818
  },
  {
    "reference": "US-1699",
    "name": "Mohawk Mountain State Park",
    "latitude": 41.8442,
    "longitude": -73.2897,
    "grid": "FN31iu",
    "locationDesc": "US-CT",
    "attempts": 94,
    "activations": 86,
    "qsos": 2921
  },
  {
    "reference": "US-1700",
    "name": "Mooween State Park",
    "latitude": 41.5564,
    "longitude": -72.2258,
    "grid": "FN31vn",
    "locationDesc": "US-CT",
    "attempts": 40,
    "activations": 37,
    "qsos": 1159
  },
  {
    "reference": "US-1701",
    "name": "Mount Bushnell State Park",
    "latitude": 41.6906,
    "longitude": -73.3561,
    "grid": "FN31hq",
    "locationDesc": "US-CT",
    "attempts": 17,
    "activations": 17,
    "qsos": 377
  },
  {
    "reference": "US-1702",
    "name": "Mount Riga State Park",
    "latitude": 42.0287,
    "longitude": -73.4289,
    "grid": "FN32ga",
    "locationDesc": "US-CT",
    "attempts": 28,
    "activations": 28,
    "qsos": 703
  },
  {
    "reference": "US-1703",
    "name": "Mount Tom State Park",
    "latitude": 41.6925,
    "longitude": -73.2794,
    "grid": "FN31iq",
    "locationDesc": "US-CT",
    "attempts": 58,
    "activations": 57,
    "qsos": 1988
  },
  {
    "reference": "US-1704",
    "name": "Old Furnace State Park",
    "latitude": 41.7883,
    "longitude": -71.8657,
    "grid": "FN41bs",
    "locationDesc": "US-CT",
    "attempts": 52,
    "activations": 49,
    "qsos": 1355
  },
  {
    "reference": "US-1705",
    "name": "Osborndale State Park",
    "latitude": 41.3404,
    "longitude": -73.1025,
    "grid": "FN31ki",
    "locationDesc": "US-CT",
    "attempts": 241,
    "activations": 237,
    "qsos": 7294
  },
  {
    "reference": "US-1706",
    "name": "Penwood State Park",
    "latitude": 41.8387,
    "longitude": -72.7848,
    "grid": "FN31ou",
    "locationDesc": "US-CT",
    "attempts": 304,
    "activations": 299,
    "qsos": 17056
  },
  {
    "reference": "US-1707",
    "name": "Putnam Memorial State Park",
    "latitude": 41.3387,
    "longitude": -73.3815,
    "grid": "FN31hi",
    "locationDesc": "US-CT",
    "attempts": 155,
    "activations": 150,
    "qsos": 6797
  },
  {
    "reference": "US-1708",
    "name": "Quaddick State Park",
    "latitude": 41.9558,
    "longitude": -71.8121,
    "grid": "FN41cw",
    "locationDesc": "US-CT",
    "attempts": 69,
    "activations": 66,
    "qsos": 1848
  },
  {
    "reference": "US-1709",
    "name": "Quinnipiac River State Park",
    "latitude": 41.401,
    "longitude": -72.8642,
    "grid": "FN31nj",
    "locationDesc": "US-CT",
    "attempts": 58,
    "activations": 58,
    "qsos": 1584
  },
  {
    "reference": "US-1710",
    "name": "River Highlands State Park",
    "latitude": 41.618,
    "longitude": -72.6353,
    "grid": "FN31qo",
    "locationDesc": "US-CT",
    "attempts": 95,
    "activations": 93,
    "qsos": 3261
  },
  {
    "reference": "US-1711",
    "name": "Rocky Neck State Park",
    "latitude": 41.3083,
    "longitude": -72.2443,
    "grid": "FN31vh",
    "locationDesc": "US-CT",
    "attempts": 117,
    "activations": 114,
    "qsos": 4799
  },
  {
    "reference": "US-1712",
    "name": "Ross Pond State Park",
    "latitude": 41.7771,
    "longitude": -71.8638,
    "grid": "FN41bs",
    "locationDesc": "US-CT",
    "attempts": 35,
    "activations": 35,
    "qsos": 978
  },
  {
    "reference": "US-1713",
    "name": "Scantic River State Park",
    "latitude": 41.9385,
    "longitude": -72.5466,
    "grid": "FN31rw",
    "locationDesc": "US-CT",
    "attempts": 46,
    "activations": 45,
    "qsos": 1275
  },
  {
    "reference": "US-1714",
    "name": "Selden Neck State Park",
    "latitude": 41.3994,
    "longitude": -72.411,
    "grid": "FN31tj",
    "locationDesc": "US-CT",
    "attempts": 9,
    "activations": 9,
    "qsos": 231
  },
  {
    "reference": "US-1715",
    "name": "Sherwood Island State Park",
    "latitude": 41.1191,
    "longitude": -73.3302,
    "grid": "FN31ic",
    "locationDesc": "US-CT",
    "attempts": 292,
    "activations": 280,
    "qsos": 11474
  },
  {
    "reference": "US-1716",
    "name": "Silver Sands State Park",
    "latitude": 41.2009,
    "longitude": -73.0721,
    "grid": "FN31le",
    "locationDesc": "US-CT",
    "attempts": 288,
    "activations": 280,
    "qsos": 10106
  },
  {
    "reference": "US-1717",
    "name": "Sleeping Giant State Park",
    "latitude": 41.421,
    "longitude": -72.8992,
    "grid": "FN31nk",
    "locationDesc": "US-CT",
    "attempts": 323,
    "activations": 317,
    "qsos": 13764
  },
  {
    "reference": "US-1718",
    "name": "Southford Falls State Park",
    "latitude": 41.4589,
    "longitude": -73.1647,
    "grid": "FN31kl",
    "locationDesc": "US-CT",
    "attempts": 72,
    "activations": 64,
    "qsos": 1945
  },
  {
    "reference": "US-1719",
    "name": "Squantz Pond State Park",
    "latitude": 41.5106,
    "longitude": -73.4764,
    "grid": "FN31gm",
    "locationDesc": "US-CT",
    "attempts": 141,
    "activations": 134,
    "qsos": 5171
  },
  {
    "reference": "US-1720",
    "name": "Stillwater Pond State Park",
    "latitude": 41.8376,
    "longitude": -73.1519,
    "grid": "FN31ku",
    "locationDesc": "US-CT",
    "attempts": 37,
    "activations": 33,
    "qsos": 753
  },
  {
    "reference": "US-1721",
    "name": "Stratton Brook State Park",
    "latitude": 41.8684,
    "longitude": -72.8353,
    "grid": "FN31nu",
    "locationDesc": "US-CT",
    "attempts": 328,
    "activations": 311,
    "qsos": 12612
  },
  {
    "reference": "US-1722",
    "name": "Sunny Brook State Park",
    "latitude": 41.8516,
    "longitude": -73.1257,
    "grid": "FN31ku",
    "locationDesc": "US-CT",
    "attempts": 27,
    "activations": 27,
    "qsos": 679
  },
  {
    "reference": "US-1723",
    "name": "Sunrise State Park",
    "latitude": 41.5068,
    "longitude": -72.4816,
    "grid": "FN31sm",
    "locationDesc": "US-CT",
    "attempts": 35,
    "activations": 34,
    "qsos": 1007
  },
  {
    "reference": "US-1724",
    "name": "Talcott Mountain State Park",
    "latitude": 41.8381,
    "longitude": -72.7906,
    "grid": "FN31ou",
    "locationDesc": "US-CT",
    "attempts": 213,
    "activations": 210,
    "qsos": 9251
  },
  {
    "reference": "US-1725",
    "name": "Trimountain State Park",
    "latitude": 41.4442,
    "longitude": -72.7378,
    "grid": "FN31pk",
    "locationDesc": "US-CT",
    "attempts": 23,
    "activations": 22,
    "qsos": 649
  },
  {
    "reference": "US-1726",
    "name": "Wadsworth Falls State Park",
    "latitude": 41.5364,
    "longitude": -72.6859,
    "grid": "FN31pm",
    "locationDesc": "US-CT",
    "attempts": 226,
    "activations": 221,
    "qsos": 10683
  },
  {
    "reference": "US-1727",
    "name": "West Rock Ridge State Park",
    "latitude": 41.3447,
    "longitude": -72.9661,
    "grid": "FN31mi",
    "locationDesc": "US-CT",
    "attempts": 70,
    "activations": 69,
    "qsos": 2586
  },
  {
    "reference": "US-1728",
    "name": "Wharton Brook State Park",
    "latitude": 41.4251,
    "longitude": -72.8376,
    "grid": "FN31nk",
    "locationDesc": "US-CT",
    "attempts": 876,
    "activations": 854,
    "qsos": 28709
  },
  {
    "reference": "US-1729",
    "name": "Windsor Meadows State Park",
    "latitude": 41.8131,
    "longitude": -72.6478,
    "grid": "FN31qt",
    "locationDesc": "US-CT",
    "attempts": 127,
    "activations": 122,
    "qsos": 4543
  },
  {
    "reference": "US-4369",
    "name": "Shenipsit State Forest",
    "latitude": 41.9615,
    "longitude": -72.4084,
    "grid": "FN31tx",
    "locationDesc": "US-CT",
    "attempts": 86,
    "activations": 82,
    "qsos": 3128
  },
  {
    "reference": "US-4556",
    "name": "Appalachian Trail National Scenic Trail",
    "latitude": 34.6267,
    "longitude": -84.1937,
    "grid": "EM74vp",
    "locationDesc": "US-CT,US-GA,US-MA,US-MD,US-ME,US-NC,US-NH,US-NJ,US-NY,US-PA,US-TN,US-VA,US-VT,US-WV",
    "attempts": 5706,
    "activations": 5473,
    "qsos": 200848
  },
  {
    "reference": "US-4561",
    "name": "New England Trail National Scenic Trail",
    "latitude": 42.7158,
    "longitude": -72.2558,
    "grid": "FN32ur",
    "locationDesc": "US-CT,US-MA",
    "attempts": 585,
    "activations": 575,
    "qsos": 30506
  },
  {
    "reference": "US-4582",
    "name": "Washington-Rochambeau Revolutionary Route National Historic Trail",
    "latitude": 41.312,
    "longitude": -73.9709,
    "grid": "FN31ah",
    "locationDesc": "US-CT,US-DC,US-DE,US-MA,US-MD,US-NJ,US-NY,US-PA,US-RI,US-VA",
    "attempts": 2560,
    "activations": 2513,
    "qsos": 104546
  },
  {
    "reference": "US-6857",
    "name": "American Legion State Forest",
    "latitude": 41.935,
    "longitude": -73.003,
    "grid": "FN31lw",
    "locationDesc": "US-CT",
    "attempts": 55,
    "activations": 53,
    "qsos": 2037
  },
  {
    "reference": "US-6858",
    "name": "Beckett Hill Park Reserve",
    "latitude": 41.382,
    "longitude": -72.304,
    "grid": "FN31uj",
    "locationDesc": "US-CT",
    "attempts": 12,
    "activations": 12,
    "qsos": 414
  },
  {
    "reference": "US-6859",
    "name": "Enders State Forest",
    "latitude": 41.9552,
    "longitude": -72.879,
    "grid": "FN31nw",
    "locationDesc": "US-CT",
    "attempts": 51,
    "activations": 51,
    "qsos": 2105
  },
  {
    "reference": "US-6860",
    "name": "Ferry Landing State Park",
    "latitude": 41.3118,
    "longitude": -72.3459,
    "grid": "FN31th",
    "locationDesc": "US-CT",
    "attempts": 63,
    "activations": 60,
    "qsos": 2128
  },
  {
    "reference": "US-6861",
    "name": "Great Pond / Massacoe State Forest",
    "latitude": 41.8941,
    "longitude": -72.8375,
    "grid": "FN31nv",
    "locationDesc": "US-CT",
    "attempts": 101,
    "activations": 97,
    "qsos": 2438
  },
  {
    "reference": "US-6862",
    "name": "Horse Guard State Park",
    "latitude": 41.8016,
    "longitude": -72.8616,
    "grid": "FN31nt",
    "locationDesc": "US-CT",
    "attempts": 152,
    "activations": 142,
    "qsos": 4682
  },
  {
    "reference": "US-6863",
    "name": "James L. Goodwin State Forest",
    "latitude": 41.775,
    "longitude": -72.082,
    "grid": "FN31xs",
    "locationDesc": "US-CT",
    "attempts": 46,
    "activations": 40,
    "qsos": 1420
  },
  {
    "reference": "US-6864",
    "name": "Mono Pond State Park Preserve",
    "latitude": 41.679,
    "longitude": -72.3106,
    "grid": "FN31uq",
    "locationDesc": "US-CT",
    "attempts": 58,
    "activations": 56,
    "qsos": 2598
  },
  {
    "reference": "US-6865",
    "name": "Nathan Hale State Forest",
    "latitude": 41.7654,
    "longitude": -72.3479,
    "grid": "FN31ts",
    "locationDesc": "US-CT",
    "attempts": 57,
    "activations": 57,
    "qsos": 1924
  },
  {
    "reference": "US-6866",
    "name": "Nehantic State Forest",
    "latitude": 41.438,
    "longitude": -72.263,
    "grid": "FN31uk",
    "locationDesc": "US-CT",
    "attempts": 45,
    "activations": 41,
    "qsos": 1172
  },
  {
    "reference": "US-6867",
    "name": "Nye Holman State Forest",
    "latitude": 41.8819,
    "longitude": -72.3075,
    "grid": "FN31uv",
    "locationDesc": "US-CT",
    "attempts": 83,
    "activations": 79,
    "qsos": 2769
  },
  {
    "reference": "US-6868",
    "name": "Pawcatuck River Wildlife Management Area",
    "latitude": 41.3495,
    "longitude": -71.8363,
    "grid": "FN41bi",
    "locationDesc": "US-CT",
    "attempts": 92,
    "activations": 86,
    "qsos": 2350
  },
  {
    "reference": "US-6869",
    "name": "Peoples State Forest",
    "latitude": 41.9252,
    "longitude": -72.9981,
    "grid": "FN31mw",
    "locationDesc": "US-CT",
    "attempts": 158,
    "activations": 154,
    "qsos": 5540
  },
  {
    "reference": "US-6870",
    "name": "Quinebaug Lake State Park",
    "latitude": 41.7807,
    "longitude": -71.8867,
    "grid": "FN41bs",
    "locationDesc": "US-CT",
    "attempts": 33,
    "activations": 31,
    "qsos": 936
  },
  {
    "reference": "US-6871",
    "name": "Rocky Glen State Park",
    "latitude": 41.4231,
    "longitude": -73.2822,
    "grid": "FN31ik",
    "locationDesc": "US-CT",
    "attempts": 56,
    "activations": 54,
    "qsos": 1293
  },
  {
    "reference": "US-6872",
    "name": "Salt Rock State Forest",
    "latitude": 41.6438,
    "longitude": -72.0893,
    "grid": "FN31wp",
    "locationDesc": "US-CT",
    "attempts": 48,
    "activations": 47,
    "qsos": 1671
  },
  {
    "reference": "US-6873",
    "name": "Stoddard Hill State Park",
    "latitude": 41.4594,
    "longitude": -72.0666,
    "grid": "FN31xl",
    "locationDesc": "US-CT",
    "attempts": 199,
    "activations": 196,
    "qsos": 8125
  },
  {
    "reference": "US-6874",
    "name": "Tunxis State Forest",
    "latitude": 42.016,
    "longitude": -72.969,
    "grid": "FN32ma",
    "locationDesc": "US-CT",
    "attempts": 21,
    "activations": 19,
    "qsos": 596
  },
  {
    "reference": "US-6875",
    "name": "The Preserve Essex Land Trust State Park Preserve",
    "latitude": 41.3175,
    "longitude": -72.4324,
    "grid": "FN31sh",
    "locationDesc": "US-CT",
    "attempts": 72,
    "activations": 71,
    "qsos": 3430
  },
  {
    "reference": "US-7520",
    "name": "Mansfield Hollow Wildlife Management Area",
    "latitude": 41.7518,
    "longitude": -72.1611,
    "grid": "FN31ws",
    "locationDesc": "US-CT",
    "attempts": 36,
    "activations": 35,
    "qsos": 950
  },
  {
    "reference": "US-7528",
    "name": "Air Line State Trail",
    "latitude": 41.5783,
    "longitude": -72.4925,
    "grid": "FN31sn",
    "locationDesc": "US-CT",
    "attempts": 222,
    "activations": 212,
    "qsos": 6536
  },
  {
    "reference": "US-7529",
    "name": "Beckley Iron Furnace State Park",
    "latitude": 42.0111,
    "longitude": -73.2923,
    "grid": "FN32ia",
    "locationDesc": "US-CT",
    "attempts": 27,
    "activations": 26,
    "qsos": 677
  },
  {
    "reference": "US-7530",
    "name": "Centennial Watershed State Forest",
    "latitude": 41.288,
    "longitude": -73.3851,
    "grid": "FN31hg",
    "locationDesc": "US-CT",
    "attempts": 81,
    "activations": 77,
    "qsos": 3741
  },
  {
    "reference": "US-7531",
    "name": "Cockaponset State Forest",
    "latitude": 41.4459,
    "longitude": -72.5251,
    "grid": "FN31rk",
    "locationDesc": "US-CT",
    "attempts": 229,
    "activations": 224,
    "qsos": 9425
  },
  {
    "reference": "US-7532",
    "name": "Hop River State Trail",
    "latitude": 41.7791,
    "longitude": -72.4354,
    "grid": "FN31ss",
    "locationDesc": "US-CT",
    "attempts": 137,
    "activations": 127,
    "qsos": 3816
  },
  {
    "reference": "US-7533",
    "name": "Larkin State Trail",
    "latitude": 41.5125,
    "longitude": -73.0655,
    "grid": "FN31lm",
    "locationDesc": "US-CT",
    "attempts": 69,
    "activations": 68,
    "qsos": 2242
  },
  {
    "reference": "US-7534",
    "name": "Mohegan State Forest",
    "latitude": 41.6651,
    "longitude": -72.0864,
    "grid": "FN31wp",
    "locationDesc": "US-CT",
    "attempts": 24,
    "activations": 24,
    "qsos": 1117
  },
  {
    "reference": "US-7535",
    "name": "Moosup Valley State Trail",
    "latitude": 41.7134,
    "longitude": -71.8803,
    "grid": "FN41br",
    "locationDesc": "US-CT",
    "attempts": 26,
    "activations": 25,
    "qsos": 596
  },
  {
    "reference": "US-7536",
    "name": "Nassahegon State Forest",
    "latitude": 41.7543,
    "longitude": -72.941,
    "grid": "FN31ms",
    "locationDesc": "US-CT",
    "attempts": 76,
    "activations": 67,
    "qsos": 2726
  },
  {
    "reference": "US-7537",
    "name": "Natchaug State Forest",
    "latitude": 41.8395,
    "longitude": -72.0713,
    "grid": "FN31xu",
    "locationDesc": "US-CT",
    "attempts": 33,
    "activations": 30,
    "qsos": 815
  },
  {
    "reference": "US-7538",
    "name": "Naugatuck State Forest",
    "latitude": 41.4675,
    "longitude": -72.95,
    "grid": "FN31ml",
    "locationDesc": "US-CT",
    "attempts": 43,
    "activations": 42,
    "qsos": 1308
  },
  {
    "reference": "US-7539",
    "name": "Platt Hill State Park",
    "latitude": 41.8988,
    "longitude": -73.1107,
    "grid": "FN31kv",
    "locationDesc": "US-CT",
    "attempts": 55,
    "activations": 52,
    "qsos": 1749
  },
  {
    "reference": "US-7540",
    "name": "Pomeroy State Reserve",
    "latitude": 41.6935,
    "longitude": -72.2241,
    "grid": "FN31vq",
    "locationDesc": "US-CT",
    "attempts": 18,
    "activations": 17,
    "qsos": 418
  },
  {
    "reference": "US-7541",
    "name": "Salmon River State Forest",
    "latitude": 41.5531,
    "longitude": -72.4495,
    "grid": "FN31sn",
    "locationDesc": "US-CT",
    "attempts": 121,
    "activations": 118,
    "qsos": 3359
  },
  {
    "reference": "US-7542",
    "name": "Satan's Kingdom State Recreation Area",
    "latitude": 41.8573,
    "longitude": -72.9584,
    "grid": "FN31mu",
    "locationDesc": "US-CT",
    "attempts": 79,
    "activations": 77,
    "qsos": 3021
  },
  {
    "reference": "US-7544",
    "name": "Windsor Locks Canal State Trail",
    "latitude": 41.9866,
    "longitude": -72.6051,
    "grid": "FN31qx",
    "locationDesc": "US-CT",
    "attempts": 218,
    "activations": 211,
    "qsos": 6538
  },
  {
    "reference": "US-7545",
    "name": "Wooster Mountain State Park",
    "latitude": 41.3501,
    "longitude": -73.47,
    "grid": "FN31gi",
    "locationDesc": "US-CT",
    "attempts": 75,
    "activations": 73,
    "qsos": 2240
  },
  {
    "reference": "US-7546",
    "name": "Wyantenock State Forest",
    "latitude": 41.792,
    "longitude": -73.3252,
    "grid": "FN31it",
    "locationDesc": "US-CT",
    "attempts": 16,
    "activations": 16,
    "qsos": 652
  },
  {
    "reference": "US-7547",
    "name": "Captain George Comer Memorial State Park",
    "latitude": 41.4705,
    "longitude": -72.4068,
    "grid": "FN31tl",
    "locationDesc": "US-CT",
    "attempts": 33,
    "activations": 33,
    "qsos": 1050
  },
  {
    "reference": "US-7548",
    "name": "Pachaug State Forest",
    "latitude": 41.596,
    "longitude": -71.8754,
    "grid": "FN41bo",
    "locationDesc": "US-CT",
    "attempts": 117,
    "activations": 115,
    "qsos": 4483
  },
  {
    "reference": "US-7652",
    "name": "Franklin Wildlife Management Area",
    "latitude": 41.6073,
    "longitude": -72.137,
    "grid": "FN31wo",
    "locationDesc": "US-CT",
    "attempts": 33,
    "activations": 32,
    "qsos": 1270
  },
  {
    "reference": "US-9894",
    "name": "Topsmead State Forest State Forest",
    "latitude": 41.7479,
    "longitude": -73.1529,
    "grid": "FN31kr",
    "locationDesc": "US-CT",
    "attempts": 80,
    "activations": 79,
    "qsos": 3878
  },
  {
    "reference": "US-9896",
    "name": "Auerfarm State Park Scenic Reserve",
    "latitude": 41.8147,
    "longitude": -72.7689,
    "grid": "FN31ot",
    "locationDesc": "US-CT",
    "attempts": 188,
    "activations": 186,
    "qsos": 14399
  },
  {
    "reference": "US-10073",
    "name": "Whittemore Glen State Park Scenic Reserve",
    "latitude": 41.5125,
    "longitude": -73.0665,
    "grid": "FN31lm",
    "locationDesc": "US-CT",
    "attempts": 43,
    "activations": 42,
    "qsos": 1631
  },
  {
    "reference": "US-10075",
    "name": "Nepaug State Forest State Forest",
    "latitude": 41.8243,
    "longitude": -72.9728,
    "grid": "FN31mt",
    "locationDesc": "US-CT",
    "attempts": 36,
    "activations": 36,
    "qsos": 1519
  },
  {
    "reference": "US-10079",
    "name": "Pootatuck State Forest State Forest",
    "latitude": 41.4936,
    "longitude": -73.4849,
    "grid": "FN31gl",
    "locationDesc": "US-CT",
    "attempts": 34,
    "activations": 34,
    "qsos": 913
  },
  {
    "reference": "US-10086",
    "name": "Algonquin State Forest State Forest",
    "latitude": 41.9928,
    "longitude": -73.0654,
    "grid": "FN31lx",
    "locationDesc": "US-CT",
    "attempts": 19,
    "activations": 19,
    "qsos": 470
  },
  {
    "reference": "US-10092",
    "name": "Seaside State Park",
    "latitude": 41.3009,
    "longitude": -72.1311,
    "grid": "FN31wh",
    "locationDesc": "US-CT",
    "attempts": 80,
    "activations": 78,
    "qsos": 4404
  },
  {
    "reference": "US-10656",
    "name": "Barn Island Wildlife Management Area",
    "latitude": 41.345,
    "longitude": -71.8531,
    "grid": "FN41bi",
    "locationDesc": "US-CT",
    "attempts": 66,
    "activations": 66,
    "qsos": 2771
  },
  {
    "reference": "US-10952",
    "name": "Paugussett State Forest State Forest",
    "latitude": 41.4024,
    "longitude": -73.1876,
    "grid": "FN31jj",
    "locationDesc": "US-CT",
    "attempts": 37,
    "activations": 36,
    "qsos": 1179
  },
  {
    "reference": "US-10961",
    "name": "Mattatuck State Forest State Forest",
    "latitude": 41.6096,
    "longitude": -73.0735,
    "grid": "FN31lo",
    "locationDesc": "US-CT",
    "attempts": 38,
    "activations": 35,
    "qsos": 1332
  },
  {
    "reference": "US-10962",
    "name": "Babcock Pond WMA Wildlife Management Area",
    "latitude": 41.5487,
    "longitude": -72.3952,
    "grid": "FN31tn",
    "locationDesc": "US-CT",
    "attempts": 27,
    "activations": 24,
    "qsos": 970
  },
  {
    "reference": "US-11013",
    "name": "Bishop Swamp WMA Wildlife Management Area",
    "latitude": 41.7239,
    "longitude": -72.4021,
    "grid": "FN31tr",
    "locationDesc": "US-CT",
    "attempts": 25,
    "activations": 25,
    "qsos": 783
  },
  {
    "reference": "US-11712",
    "name": "Cromwell Meadows WMA Wildlife Management Area",
    "latitude": 41.5925,
    "longitude": -72.6625,
    "grid": "FN31qo",
    "locationDesc": "US-CT",
    "attempts": 65,
    "activations": 65,
    "qsos": 2683
  },
  {
    "reference": "US-12092",
    "name": "Nipmuck State Forest State Forest",
    "latitude": 41.9652,
    "longitude": -72.2022,
    "grid": "FN31vx",
    "locationDesc": "US-CT",
    "attempts": 34,
    "activations": 34,
    "qsos": 1541
  },
  {
    "reference": "US-12459",
    "name": "Housatonic River Southern Fields Wildlife Management Area",
    "latitude": 41.765,
    "longitude": -73.4309,
    "grid": "FN31gs",
    "locationDesc": "US-CT",
    "attempts": 16,
    "activations": 16,
    "qsos": 419
  },
  {
    "reference": "US-12460",
    "name": "Suffield Wildlife Management Area",
    "latitude": 42.0358,
    "longitude": -72.7512,
    "grid": "FN32oa",
    "locationDesc": "US-CT",
    "attempts": 51,
    "activations": 50,
    "qsos": 1876
  },
  {
    "reference": "US-12604",
    "name": "Meshomasic State Forest",
    "latitude": 41.6342,
    "longitude": -72.5615,
    "grid": "FN31rp",
    "locationDesc": "US-CT",
    "attempts": 30,
    "activations": 29,
    "qsos": 1073
  },
  {
    "reference": "US-12620",
    "name": "Old New-Gate Prison & Copper Mine Historical Reserve",
    "latitude": 41.9615,
    "longitude": -72.7448,
    "grid": "FN31px",
    "locationDesc": "US-CT",
    "attempts": 34,
    "activations": 34,
    "qsos": 1925
  },
  {
    "reference": "US-12628",
    "name": "Sessions Woods Wildlife Management Area",
    "latitude": 41.7329,
    "longitude": -72.9538,
    "grid": "FN31mr",
    "locationDesc": "US-CT",
    "attempts": 35,
    "activations": 35,
    "qsos": 1356
  },
  {
    "reference": "US-12777",
    "name": "Paugnut State Forest",
    "latitude": 41.8597,
    "longitude": -73.1095,
    "grid": "FN31ku",
    "locationDesc": "US-CT",
    "attempts": 12,
    "activations": 12,
    "qsos": 440
  }
]
