[
  {
    "reference": "US-0027",
    "name": "Gettysburg National Military Park",
    "latitude": 39.8107,
    "longitude": -77.2245,
    "grid": "FM19jt",
    "locationDesc": "US-PA",
    "attempts": 502,
    "activations": 482,
    "qsos": 13564
  },
  {
    "reference": "US-0511",
    "name": "Erie National Wildlife Refuge",
    "latitude": 41.6267,
    "longitude": -79.9598,
    "grid": "FN01ap",
    "locationDesc": "US-PA",
    "attempts": 30,
    "activations": 30,
    "qsos": 757
  },
  {
    "reference": "US-0512",
    "name": "John Heinz National Wildlife Refuge",
    "latitude": 39.8929,
    "longitude": -75.2575,
    "grid": "FM29iv",
    "locationDesc": "US-PA",
    "attempts": 125,
    "activations": 120,
    "qsos": 3836
  },
  {
    "reference": "US-0619",
    "name": "Allegheny National Forest",
    "latitude": 41.4864,
    "longitude": -79.1022,
    "grid": "FN01kl",
    "locationDesc": "US-PA",
    "attempts": 383,
    "activations": 358,
    "qsos": 22314
  },
  {
    "reference": "US-0620",
    "name": "Beechwood Farms State Conservation Area",
    "latitude": 40.543,
    "longitude": -79.9056,
    "grid": "FN00bn",
    "locationDesc": "US-PA",
    "attempts": 428,
    "activations": 419,
    "qsos": 12840
  },
  {
    "reference": "US-0621",
    "name": "Todd Sanctuary State Conservation Area",
    "latitude": 40.7324,
    "longitude": -79.6974,
    "grid": "FN00dr",
    "locationDesc": "US-PA",
    "attempts": 92,
    "activations": 90,
    "qsos": 3606
  },
  {
    "reference": "US-0622",
    "name": "Bear Run State Conservation Area",
    "latitude": 39.9057,
    "longitude": -79.461,
    "grid": "FM09gv",
    "locationDesc": "US-PA",
    "attempts": 34,
    "activations": 34,
    "qsos": 1078
  },
  {
    "reference": "US-0623",
    "name": "Powdermill State Conservation Area",
    "latitude": 40.1603,
    "longitude": -79.2719,
    "grid": "FN00id",
    "locationDesc": "US-PA",
    "attempts": 37,
    "activations": 37,
    "qsos": 840
  },
  {
    "reference": "US-0624",
    "name": "Roaring Run State Conservation Area",
    "latitude": 40.0666,
    "longitude": -79.2721,
    "grid": "FN00ib",
    "locationDesc": "US-PA",
    "attempts": 58,
    "activations": 55,
    "qsos": 2013
  },
  {
    "reference": "US-0625",
    "name": "Mount Davis State Conservation Area",
    "latitude": 39.7862,
    "longitude": -79.1783,
    "grid": "FM09js",
    "locationDesc": "US-PA",
    "attempts": 73,
    "activations": 69,
    "qsos": 2765
  },
  {
    "reference": "US-0626",
    "name": "Sweet Root State Conservation Area",
    "latitude": 39.8321,
    "longitude": -78.5006,
    "grid": "FM09rt",
    "locationDesc": "US-PA",
    "attempts": 9,
    "activations": 8,
    "qsos": 405
  },
  {
    "reference": "US-0627",
    "name": "Pine Ridge State Conservation Area",
    "latitude": 39.7925,
    "longitude": -78.478,
    "grid": "FM09st",
    "locationDesc": "US-PA",
    "attempts": 7,
    "activations": 6,
    "qsos": 197
  },
  {
    "reference": "US-0628",
    "name": "Charles F. Lewis State Conservation Area",
    "latitude": 40.411,
    "longitude": -78.9853,
    "grid": "FN00mj",
    "locationDesc": "US-PA",
    "attempts": 45,
    "activations": 43,
    "qsos": 1154
  },
  {
    "reference": "US-0681",
    "name": "Upper Delaware National Wild and Scenic River",
    "latitude": 41.4801,
    "longitude": -74.923,
    "grid": "FN21ml",
    "locationDesc": "US-NY,US-PA",
    "attempts": 73,
    "activations": 65,
    "qsos": 3101
  },
  {
    "reference": "US-0684",
    "name": "Lower Delaware National Wild and Scenic River",
    "latitude": 40.297,
    "longitude": -74.872,
    "grid": "FN20nh",
    "locationDesc": "US-NJ,US-PA",
    "attempts": 453,
    "activations": 434,
    "qsos": 12748
  },
  {
    "reference": "US-0704",
    "name": "Fort Necessity National Battlefield",
    "latitude": 39.8141,
    "longitude": -79.5861,
    "grid": "FM09et",
    "locationDesc": "US-PA",
    "attempts": 95,
    "activations": 91,
    "qsos": 2579
  },
  {
    "reference": "US-0733",
    "name": "First State National Historical Park",
    "latitude": 39.6598,
    "longitude": -75.5636,
    "grid": "FM29fp",
    "locationDesc": "US-DE,US-PA",
    "attempts": 155,
    "activations": 143,
    "qsos": 5477
  },
  {
    "reference": "US-0738",
    "name": "Independence National Historical Park",
    "latitude": 39.9514,
    "longitude": -75.1498,
    "grid": "FM29kw",
    "locationDesc": "US-PA",
    "attempts": 30,
    "activations": 25,
    "qsos": 649
  },
  {
    "reference": "US-0761",
    "name": "Valley Forge National Historical Park",
    "latitude": 40.1016,
    "longitude": -75.4252,
    "grid": "FN20gc",
    "locationDesc": "US-PA",
    "attempts": 569,
    "activations": 518,
    "qsos": 15740
  },
  {
    "reference": "US-0774",
    "name": "Flight 93 National Memorial",
    "latitude": 40.0577,
    "longitude": -78.9057,
    "grid": "FN00nb",
    "locationDesc": "US-PA",
    "attempts": 88,
    "activations": 87,
    "qsos": 2927
  },
  {
    "reference": "US-0781",
    "name": "Johnstown Flood National Memorial",
    "latitude": 40.3495,
    "longitude": -78.7703,
    "grid": "FN00oi",
    "locationDesc": "US-PA",
    "attempts": 49,
    "activations": 48,
    "qsos": 1629
  },
  {
    "reference": "US-0790",
    "name": "Thaddeus Kosciuszko National Memorial",
    "latitude": 39.9434,
    "longitude": -75.1473,
    "grid": "FM29kw",
    "locationDesc": "US-PA",
    "attempts": 13,
    "activations": 13,
    "qsos": 368
  },
  {
    "reference": "US-0798",
    "name": "Allegheny Portage Railroad National Historic Site",
    "latitude": 40.4573,
    "longitude": -78.5491,
    "grid": "FN00rk",
    "locationDesc": "US-PA",
    "attempts": 104,
    "activations": 97,
    "qsos": 2747
  },
  {
    "reference": "US-0809",
    "name": "Edgar Allan Poe National Historic Site",
    "latitude": 39.962,
    "longitude": -75.1498,
    "grid": "FM29kx",
    "locationDesc": "US-PA",
    "attempts": 15,
    "activations": 15,
    "qsos": 546
  },
  {
    "reference": "US-0810",
    "name": "Eisenhower National Historic Site",
    "latitude": 39.7939,
    "longitude": -77.2633,
    "grid": "FM19it",
    "locationDesc": "US-PA",
    "attempts": 242,
    "activations": 237,
    "qsos": 6689
  },
  {
    "reference": "US-0827",
    "name": "Friendship Hill National Historic Site",
    "latitude": 39.7781,
    "longitude": -79.932,
    "grid": "FM09as",
    "locationDesc": "US-PA",
    "attempts": 54,
    "activations": 49,
    "qsos": 1878
  },
  {
    "reference": "US-0834",
    "name": "Hopewell Furnace National Historic Site",
    "latitude": 40.2069,
    "longitude": -75.7734,
    "grid": "FN20ce",
    "locationDesc": "US-PA",
    "attempts": 116,
    "activations": 113,
    "qsos": 4563
  },
  {
    "reference": "US-0864",
    "name": "Steamtown National Historic Site",
    "latitude": 41.4079,
    "longitude": -75.672,
    "grid": "FN21dj",
    "locationDesc": "US-PA",
    "attempts": 86,
    "activations": 84,
    "qsos": 4305
  },
  {
    "reference": "US-0898",
    "name": "White Clay Creek National Wild and Scenic River",
    "latitude": 39.7504,
    "longitude": -75.7736,
    "grid": "FM29cs",
    "locationDesc": "US-DE,US-PA",
    "attempts": 300,
    "activations": 290,
    "qsos": 11038
  },
  {
    "reference": "US-1327",
    "name": "Allegheny Islands State Park",
    "latitude": 40.5373,
    "longitude": -79.8216,
    "grid": "FN00cm",
    "locationDesc": "US-PA",
    "attempts": 12,
    "activations": 12,
    "qsos": 891
  },
  {
    "reference": "US-1328",
    "name": "Archbald Pothole State Park",
    "latitude": 41.513,
    "longitude": -75.5757,
    "grid": "FN21fm",
    "locationDesc": "US-PA",
    "attempts": 59,
    "activations": 56,
    "qsos": 2601
  },
  {
    "reference": "US-1329",
    "name": "Bald Eagle State Park",
    "latitude": 41.0341,
    "longitude": -77.6512,
    "grid": "FN11ea",
    "locationDesc": "US-PA",
    "attempts": 145,
    "activations": 141,
    "qsos": 5297
  },
  {
    "reference": "US-1330",
    "name": "Beltzville State Park",
    "latitude": 40.8634,
    "longitude": -75.6179,
    "grid": "FN20eu",
    "locationDesc": "US-PA",
    "attempts": 155,
    "activations": 152,
    "qsos": 5798
  },
  {
    "reference": "US-1331",
    "name": "Bendigo State Park",
    "latitude": 41.5282,
    "longitude": -78.6289,
    "grid": "FN01qm",
    "locationDesc": "US-PA",
    "attempts": 20,
    "activations": 20,
    "qsos": 1466
  },
  {
    "reference": "US-1332",
    "name": "Benjamin Rush State Park",
    "latitude": 40.1167,
    "longitude": -74.9779,
    "grid": "FN20mc",
    "locationDesc": "US-PA",
    "attempts": 67,
    "activations": 63,
    "qsos": 1711
  },
  {
    "reference": "US-1333",
    "name": "Big Pocono State Park",
    "latitude": 41.0426,
    "longitude": -75.3497,
    "grid": "FN21hb",
    "locationDesc": "US-PA",
    "attempts": 127,
    "activations": 119,
    "qsos": 11221
  },
  {
    "reference": "US-1334",
    "name": "Black Moshannon State Park",
    "latitude": 40.9147,
    "longitude": -78.0588,
    "grid": "FN00xv",
    "locationDesc": "US-PA",
    "attempts": 93,
    "activations": 85,
    "qsos": 4085
  },
  {
    "reference": "US-1335",
    "name": "Blue Knob State Park",
    "latitude": 40.2881,
    "longitude": -78.5624,
    "grid": "FN00rg",
    "locationDesc": "US-PA",
    "attempts": 99,
    "activations": 90,
    "qsos": 4631
  },
  {
    "reference": "US-1336",
    "name": "Buchanan's Birthplace State Park",
    "latitude": 39.8708,
    "longitude": -77.9535,
    "grid": "FM19au",
    "locationDesc": "US-PA",
    "attempts": 28,
    "activations": 28,
    "qsos": 844
  },
  {
    "reference": "US-1337",
    "name": "Caledonia State Park",
    "latitude": 39.9087,
    "longitude": -77.4783,
    "grid": "FM19gv",
    "locationDesc": "US-PA",
    "attempts": 205,
    "activations": 195,
    "qsos": 6794
  },
  {
    "reference": "US-1338",
    "name": "Canoe Creek State Park",
    "latitude": 40.4841,
    "longitude": -78.2838,
    "grid": "FN00ul",
    "locationDesc": "US-PA",
    "attempts": 127,
    "activations": 110,
    "qsos": 4385
  },
  {
    "reference": "US-1339",
    "name": "Chapman State Park",
    "latitude": 41.7536,
    "longitude": -79.1705,
    "grid": "FN01js",
    "locationDesc": "US-PA",
    "attempts": 63,
    "activations": 61,
    "qsos": 4586
  },
  {
    "reference": "US-1340",
    "name": "Cherry Springs State Park",
    "latitude": 41.6634,
    "longitude": -77.8228,
    "grid": "FN11cp",
    "locationDesc": "US-PA",
    "attempts": 58,
    "activations": 55,
    "qsos": 2564
  },
  {
    "reference": "US-1341",
    "name": "Clear Creek State Park",
    "latitude": 41.3229,
    "longitude": -79.0769,
    "grid": "FN01lh",
    "locationDesc": "US-PA",
    "attempts": 86,
    "activations": 80,
    "qsos": 5206
  },
  {
    "reference": "US-1342",
    "name": "Codorus State Park",
    "latitude": 39.7926,
    "longitude": -76.9027,
    "grid": "FM19nt",
    "locationDesc": "US-PA",
    "attempts": 322,
    "activations": 297,
    "qsos": 10969
  },
  {
    "reference": "US-1343",
    "name": "Colonel Denning State Park",
    "latitude": 40.2819,
    "longitude": -77.4156,
    "grid": "FN10hg",
    "locationDesc": "US-PA",
    "attempts": 44,
    "activations": 40,
    "qsos": 1073
  },
  {
    "reference": "US-1344",
    "name": "Colton Point State Park",
    "latitude": 41.7083,
    "longitude": -77.4653,
    "grid": "FN11gq",
    "locationDesc": "US-PA",
    "attempts": 65,
    "activations": 64,
    "qsos": 1599
  },
  {
    "reference": "US-1345",
    "name": "Cook Forest State Park",
    "latitude": 41.3527,
    "longitude": -79.2211,
    "grid": "FN01ji",
    "locationDesc": "US-PA",
    "attempts": 155,
    "activations": 145,
    "qsos": 6652
  },
  {
    "reference": "US-1346",
    "name": "Cowans Gap State Park",
    "latitude": 39.9993,
    "longitude": -77.9216,
    "grid": "FM19ax",
    "locationDesc": "US-PA",
    "attempts": 62,
    "activations": 53,
    "qsos": 1894
  },
  {
    "reference": "US-1347",
    "name": "Delaware Canal State Park",
    "latitude": 40.4176,
    "longitude": -75.0606,
    "grid": "FN20lk",
    "locationDesc": "US-PA",
    "attempts": 281,
    "activations": 266,
    "qsos": 8555
  },
  {
    "reference": "US-1348",
    "name": "Denton Hill State Park",
    "latitude": 41.7773,
    "longitude": -77.8284,
    "grid": "FN11cs",
    "locationDesc": "US-PA",
    "attempts": 18,
    "activations": 18,
    "qsos": 627
  },
  {
    "reference": "US-1349",
    "name": "Elk State Park",
    "latitude": 41.6061,
    "longitude": -78.5598,
    "grid": "FN01ro",
    "locationDesc": "US-PA",
    "attempts": 15,
    "activations": 13,
    "qsos": 534
  },
  {
    "reference": "US-1350",
    "name": "Erie Bluffs State Park",
    "latitude": 42.0153,
    "longitude": -80.376,
    "grid": "EN92ta",
    "locationDesc": "US-PA",
    "attempts": 121,
    "activations": 121,
    "qsos": 4370
  },
  {
    "reference": "US-1351",
    "name": "Evansburg State Park",
    "latitude": 40.2007,
    "longitude": -75.404,
    "grid": "FN20he",
    "locationDesc": "US-PA",
    "attempts": 363,
    "activations": 344,
    "qsos": 12486
  },
  {
    "reference": "US-1352",
    "name": "Fort Washington State Park",
    "latitude": 40.1209,
    "longitude": -75.2237,
    "grid": "FN20jc",
    "locationDesc": "US-PA",
    "attempts": 506,
    "activations": 483,
    "qsos": 17234
  },
  {
    "reference": "US-1353",
    "name": "Fowlers Hollow State Park",
    "latitude": 40.2705,
    "longitude": -77.5833,
    "grid": "FN10fg",
    "locationDesc": "US-PA",
    "attempts": 27,
    "activations": 24,
    "qsos": 705
  },
  {
    "reference": "US-1354",
    "name": "Frances Slocum State Park",
    "latitude": 41.34,
    "longitude": -75.8914,
    "grid": "FN21bi",
    "locationDesc": "US-PA",
    "attempts": 191,
    "activations": 180,
    "qsos": 8456
  },
  {
    "reference": "US-1355",
    "name": "French Creek State Park",
    "latitude": 40.1999,
    "longitude": -75.7898,
    "grid": "FN20ce",
    "locationDesc": "US-PA",
    "attempts": 516,
    "activations": 458,
    "qsos": 25942
  },
  {
    "reference": "US-1356",
    "name": "Gifford Pinchot State Park",
    "latitude": 40.087,
    "longitude": -76.8881,
    "grid": "FN10nc",
    "locationDesc": "US-PA",
    "attempts": 533,
    "activations": 500,
    "qsos": 14153
  },
  {
    "reference": "US-1357",
    "name": "Gouldsboro State Park",
    "latitude": 41.2258,
    "longitude": -75.4579,
    "grid": "FN21gf",
    "locationDesc": "US-PA",
    "attempts": 66,
    "activations": 66,
    "qsos": 2042
  },
  {
    "reference": "US-1358",
    "name": "Greenwood Furnace State Park",
    "latitude": 40.6507,
    "longitude": -77.7542,
    "grid": "FN10cp",
    "locationDesc": "US-PA",
    "attempts": 31,
    "activations": 31,
    "qsos": 1036
  },
  {
    "reference": "US-1359",
    "name": "Hickory Run State Park",
    "latitude": 41.029,
    "longitude": -75.6885,
    "grid": "FN21da",
    "locationDesc": "US-PA",
    "attempts": 149,
    "activations": 136,
    "qsos": 4757
  },
  {
    "reference": "US-1360",
    "name": "Hillman State Park",
    "latitude": 40.4548,
    "longitude": -80.4177,
    "grid": "EN90sk",
    "locationDesc": "US-PA",
    "attempts": 247,
    "activations": 242,
    "qsos": 8159
  },
  {
    "reference": "US-1361",
    "name": "Hills Creek State Park",
    "latitude": 41.8077,
    "longitude": -77.1968,
    "grid": "FN11jt",
    "locationDesc": "US-PA",
    "attempts": 191,
    "activations": 184,
    "qsos": 6371
  },
  {
    "reference": "US-1362",
    "name": "Hyner Run State Park",
    "latitude": 41.3602,
    "longitude": -77.6256,
    "grid": "FN11ei",
    "locationDesc": "US-PA",
    "attempts": 30,
    "activations": 27,
    "qsos": 1640
  },
  {
    "reference": "US-1363",
    "name": "Hyner View State Park",
    "latitude": 41.3266,
    "longitude": -77.6236,
    "grid": "FN11eh",
    "locationDesc": "US-PA",
    "attempts": 29,
    "activations": 26,
    "qsos": 723
  },
  {
    "reference": "US-1364",
    "name": "Kettle Creek State Park",
    "latitude": 41.3754,
    "longitude": -77.9323,
    "grid": "FN11aj",
    "locationDesc": "US-PA",
    "attempts": 12,
    "activations": 12,
    "qsos": 450
  },
  {
    "reference": "US-1365",
    "name": "Keystone State Park",
    "latitude": 40.3753,
    "longitude": -79.3803,
    "grid": "FN00hj",
    "locationDesc": "US-PA",
    "attempts": 448,
    "activations": 434,
    "qsos": 16805
  },
  {
    "reference": "US-1366",
    "name": "Kinzua Bridge State Park",
    "latitude": 41.7589,
    "longitude": -78.587,
    "grid": "FN01qs",
    "locationDesc": "US-PA",
    "attempts": 53,
    "activations": 48,
    "qsos": 1848
  },
  {
    "reference": "US-1367",
    "name": "Kooser State Park",
    "latitude": 40.0591,
    "longitude": -79.226,
    "grid": "FN00jb",
    "locationDesc": "US-PA",
    "attempts": 84,
    "activations": 79,
    "qsos": 3743
  },
  {
    "reference": "US-1368",
    "name": "Lackawanna State Park",
    "latitude": 41.5644,
    "longitude": -75.7084,
    "grid": "FN21dn",
    "locationDesc": "US-PA",
    "attempts": 341,
    "activations": 335,
    "qsos": 15562
  },
  {
    "reference": "US-1369",
    "name": "Laurel Hill State Park",
    "latitude": 39.9984,
    "longitude": -79.2395,
    "grid": "FM09jx",
    "locationDesc": "US-PA",
    "attempts": 89,
    "activations": 87,
    "qsos": 2865
  },
  {
    "reference": "US-1370",
    "name": "Laurel Mountain State Park",
    "latitude": 40.1635,
    "longitude": -79.1651,
    "grid": "FN00kd",
    "locationDesc": "US-PA",
    "attempts": 56,
    "activations": 55,
    "qsos": 1955
  },
  {
    "reference": "US-1371",
    "name": "Laurel Ridge State Park",
    "latitude": 39.9573,
    "longitude": -79.3634,
    "grid": "FM09hw",
    "locationDesc": "US-PA",
    "attempts": 59,
    "activations": 59,
    "qsos": 1782
  },
  {
    "reference": "US-1372",
    "name": "Laurel Summit State Park",
    "latitude": 40.1184,
    "longitude": -79.1762,
    "grid": "FN00jc",
    "locationDesc": "US-PA",
    "attempts": 157,
    "activations": 153,
    "qsos": 6144
  },
  {
    "reference": "US-1373",
    "name": "Lehigh Gorge State Park",
    "latitude": 40.875,
    "longitude": -75.7448,
    "grid": "FN20dv",
    "locationDesc": "US-PA",
    "attempts": 58,
    "activations": 55,
    "qsos": 2313
  },
  {
    "reference": "US-1374",
    "name": "Leonard Harrison State Park",
    "latitude": 41.6963,
    "longitude": -77.4547,
    "grid": "FN11gq",
    "locationDesc": "US-PA",
    "attempts": 43,
    "activations": 42,
    "qsos": 1140
  },
  {
    "reference": "US-1375",
    "name": "Linn Run State Park",
    "latitude": 40.1545,
    "longitude": -79.2132,
    "grid": "FN00jd",
    "locationDesc": "US-PA",
    "attempts": 59,
    "activations": 57,
    "qsos": 1872
  },
  {
    "reference": "US-1376",
    "name": "Little Buffalo State Park",
    "latitude": 40.4523,
    "longitude": -77.1926,
    "grid": "FN10jk",
    "locationDesc": "US-PA",
    "attempts": 168,
    "activations": 164,
    "qsos": 5852
  },
  {
    "reference": "US-1377",
    "name": "Little Pine State Park",
    "latitude": 41.3641,
    "longitude": -77.3565,
    "grid": "FN11hi",
    "locationDesc": "US-PA",
    "attempts": 49,
    "activations": 48,
    "qsos": 1520
  },
  {
    "reference": "US-1378",
    "name": "Locust Lake State Park",
    "latitude": 40.7857,
    "longitude": -76.1191,
    "grid": "FN10ws",
    "locationDesc": "US-PA",
    "attempts": 107,
    "activations": 103,
    "qsos": 5030
  },
  {
    "reference": "US-1379",
    "name": "Lyman Run State Park",
    "latitude": 41.7248,
    "longitude": -77.7606,
    "grid": "FN11cr",
    "locationDesc": "US-PA",
    "attempts": 34,
    "activations": 33,
    "qsos": 1462
  },
  {
    "reference": "US-1380",
    "name": "Marsh Creek State Park",
    "latitude": 40.0671,
    "longitude": -75.7204,
    "grid": "FN20db",
    "locationDesc": "US-PA",
    "attempts": 227,
    "activations": 215,
    "qsos": 7891
  },
  {
    "reference": "US-1381",
    "name": "Maurice K Goddard State Park",
    "latitude": 41.4269,
    "longitude": -80.1469,
    "grid": "EN91wk",
    "locationDesc": "US-PA",
    "attempts": 104,
    "activations": 98,
    "qsos": 4304
  },
  {
    "reference": "US-1382",
    "name": "McCalls Dam State Park",
    "latitude": 41.0176,
    "longitude": -77.1797,
    "grid": "FN11ja",
    "locationDesc": "US-PA",
    "attempts": 20,
    "activations": 18,
    "qsos": 457
  },
  {
    "reference": "US-1383",
    "name": "McConnells Mill State Park",
    "latitude": 40.9517,
    "longitude": -80.1683,
    "grid": "EN90vw",
    "locationDesc": "US-PA",
    "attempts": 452,
    "activations": 435,
    "qsos": 16185
  },
  {
    "reference": "US-1384",
    "name": "Memorial Lake State Park",
    "latitude": 40.4227,
    "longitude": -76.5962,
    "grid": "FN10qk",
    "locationDesc": "US-PA",
    "attempts": 240,
    "activations": 233,
    "qsos": 7901
  },
  {
    "reference": "US-1385",
    "name": "Milton State Park",
    "latitude": 41.0186,
    "longitude": -76.8613,
    "grid": "FN11na",
    "locationDesc": "US-PA",
    "attempts": 96,
    "activations": 87,
    "qsos": 3109
  },
  {
    "reference": "US-1386",
    "name": "Mont Alto State Park",
    "latitude": 39.839,
    "longitude": -77.5373,
    "grid": "FM19fu",
    "locationDesc": "US-PA",
    "attempts": 163,
    "activations": 155,
    "qsos": 5004
  },
  {
    "reference": "US-1387",
    "name": "Moraine State Park",
    "latitude": 40.9437,
    "longitude": -80.0968,
    "grid": "EN90ww",
    "locationDesc": "US-PA",
    "attempts": 1068,
    "activations": 1029,
    "qsos": 36837
  },
  {
    "reference": "US-1388",
    "name": "Mt. Pisgah State Park",
    "latitude": 41.8049,
    "longitude": -76.6674,
    "grid": "FN11pt",
    "locationDesc": "US-PA",
    "attempts": 21,
    "activations": 20,
    "qsos": 914
  },
  {
    "reference": "US-1389",
    "name": "Nescopeck State Park",
    "latitude": 41.0911,
    "longitude": -75.8798,
    "grid": "FN21bc",
    "locationDesc": "US-PA",
    "attempts": 35,
    "activations": 35,
    "qsos": 1389
  },
  {
    "reference": "US-1390",
    "name": "Neshaminy State Park",
    "latitude": 40.0792,
    "longitude": -74.919,
    "grid": "FN20mb",
    "locationDesc": "US-PA",
    "attempts": 185,
    "activations": 180,
    "qsos": 5671
  },
  {
    "reference": "US-1391",
    "name": "Nockamixon State Park",
    "latitude": 40.4617,
    "longitude": -75.2346,
    "grid": "FN20jl",
    "locationDesc": "US-PA",
    "attempts": 952,
    "activations": 930,
    "qsos": 46827
  },
  {
    "reference": "US-1392",
    "name": "Ohiopyle State Park",
    "latitude": 39.868,
    "longitude": -79.4944,
    "grid": "FM09gu",
    "locationDesc": "US-PA",
    "attempts": 217,
    "activations": 209,
    "qsos": 7009
  },
  {
    "reference": "US-1393",
    "name": "Oil Creek State Park",
    "latitude": 41.5151,
    "longitude": -79.6805,
    "grid": "FN01dm",
    "locationDesc": "US-PA",
    "attempts": 53,
    "activations": 51,
    "qsos": 1893
  },
  {
    "reference": "US-1394",
    "name": "Ole Bull State Park",
    "latitude": 41.5387,
    "longitude": -77.7147,
    "grid": "FN11dm",
    "locationDesc": "US-PA",
    "attempts": 65,
    "activations": 63,
    "qsos": 4421
  },
  {
    "reference": "US-1395",
    "name": "Parker Dam State Park",
    "latitude": 41.1942,
    "longitude": -78.5107,
    "grid": "FN01re",
    "locationDesc": "US-PA",
    "attempts": 84,
    "activations": 82,
    "qsos": 6923
  },
  {
    "reference": "US-1396",
    "name": "Patterson State Park",
    "latitude": 41.6958,
    "longitude": -77.8932,
    "grid": "FN11bq",
    "locationDesc": "US-PA",
    "attempts": 34,
    "activations": 31,
    "qsos": 702
  },
  {
    "reference": "US-1397",
    "name": "Penn-Roosevelt State Park",
    "latitude": 40.7269,
    "longitude": -77.7028,
    "grid": "FN10dr",
    "locationDesc": "US-PA",
    "attempts": 24,
    "activations": 20,
    "qsos": 917
  },
  {
    "reference": "US-1398",
    "name": "Pine Grove Furnace State Park",
    "latitude": 40.0319,
    "longitude": -77.3011,
    "grid": "FN10ia",
    "locationDesc": "US-PA",
    "attempts": 194,
    "activations": 176,
    "qsos": 6672
  },
  {
    "reference": "US-1399",
    "name": "Poe Paddy State Park",
    "latitude": 40.8347,
    "longitude": -77.4168,
    "grid": "FN10gu",
    "locationDesc": "US-PA",
    "attempts": 18,
    "activations": 15,
    "qsos": 617
  },
  {
    "reference": "US-1400",
    "name": "Poe Valley State Park",
    "latitude": 40.8197,
    "longitude": -77.4719,
    "grid": "FN10gt",
    "locationDesc": "US-PA",
    "attempts": 26,
    "activations": 22,
    "qsos": 894
  },
  {
    "reference": "US-1401",
    "name": "Point State Park",
    "latitude": 40.4407,
    "longitude": -80.0096,
    "grid": "EN90xk",
    "locationDesc": "US-PA",
    "attempts": 149,
    "activations": 143,
    "qsos": 4221
  },
  {
    "reference": "US-1402",
    "name": "Presque Isle State Park",
    "latitude": 42.1163,
    "longitude": -80.1518,
    "grid": "EN92wc",
    "locationDesc": "US-PA",
    "attempts": 707,
    "activations": 684,
    "qsos": 25559
  },
  {
    "reference": "US-1403",
    "name": "Prince Gallitzin State Park",
    "latitude": 40.6651,
    "longitude": -78.5701,
    "grid": "FN00rp",
    "locationDesc": "US-PA",
    "attempts": 109,
    "activations": 101,
    "qsos": 3247
  },
  {
    "reference": "US-1404",
    "name": "Promised Land State Park",
    "latitude": 41.3183,
    "longitude": -75.2069,
    "grid": "FN21jh",
    "locationDesc": "US-PA",
    "attempts": 145,
    "activations": 137,
    "qsos": 6268
  },
  {
    "reference": "US-1405",
    "name": "Prompton State Park",
    "latitude": 41.6119,
    "longitude": -75.342,
    "grid": "FN21ho",
    "locationDesc": "US-PA",
    "attempts": 39,
    "activations": 36,
    "qsos": 1445
  },
  {
    "reference": "US-1406",
    "name": "Prouty Place State Park",
    "latitude": 41.6581,
    "longitude": -77.9126,
    "grid": "FN11bp",
    "locationDesc": "US-PA",
    "attempts": 13,
    "activations": 12,
    "qsos": 246
  },
  {
    "reference": "US-1407",
    "name": "Pymatuning State Park",
    "latitude": 41.6564,
    "longitude": -80.4589,
    "grid": "EN91sp",
    "locationDesc": "US-PA",
    "attempts": 607,
    "activations": 580,
    "qsos": 33137
  },
  {
    "reference": "US-1408",
    "name": "Raymond B Winter State Park",
    "latitude": 40.9903,
    "longitude": -77.1903,
    "grid": "FN10jx",
    "locationDesc": "US-PA",
    "attempts": 47,
    "activations": 42,
    "qsos": 1018
  },
  {
    "reference": "US-1409",
    "name": "Raccoon Creek State Park",
    "latitude": 40.5036,
    "longitude": -80.4247,
    "grid": "EN90sm",
    "locationDesc": "US-PA",
    "attempts": 934,
    "activations": 901,
    "qsos": 34169
  },
  {
    "reference": "US-1410",
    "name": "Ralph Stover State Park",
    "latitude": 40.4356,
    "longitude": -75.1008,
    "grid": "FN20kk",
    "locationDesc": "US-PA",
    "attempts": 87,
    "activations": 85,
    "qsos": 3848
  },
  {
    "reference": "US-1411",
    "name": "Ravensburg State Park",
    "latitude": 41.102,
    "longitude": -77.244,
    "grid": "FN11jc",
    "locationDesc": "US-PA",
    "attempts": 18,
    "activations": 18,
    "qsos": 546
  },
  {
    "reference": "US-1412",
    "name": "Reeds Gap State Park",
    "latitude": 40.7219,
    "longitude": -77.4756,
    "grid": "FN10gr",
    "locationDesc": "US-PA",
    "attempts": 20,
    "activations": 18,
    "qsos": 575
  },
  {
    "reference": "US-1413",
    "name": "Ricketts Glen State Park",
    "latitude": 41.3351,
    "longitude": -76.3015,
    "grid": "FN11ui",
    "locationDesc": "US-PA",
    "attempts": 130,
    "activations": 121,
    "qsos": 5153
  },
  {
    "reference": "US-1414",
    "name": "Ridley Creek State Park",
    "latitude": 39.9512,
    "longitude": -75.452,
    "grid": "FM29gw",
    "locationDesc": "US-PA",
    "attempts": 292,
    "activations": 271,
    "qsos": 10749
  },
  {
    "reference": "US-1415",
    "name": "Ryerson Station State Park",
    "latitude": 39.8838,
    "longitude": -80.4504,
    "grid": "EM99sv",
    "locationDesc": "US-PA",
    "attempts": 113,
    "activations": 105,
    "qsos": 7889
  },
  {
    "reference": "US-1416",
    "name": "S B Elliott State Park",
    "latitude": 41.1128,
    "longitude": -78.5259,
    "grid": "FN01rc",
    "locationDesc": "US-PA",
    "attempts": 131,
    "activations": 127,
    "qsos": 7815
  },
  {
    "reference": "US-1417",
    "name": "Salt Springs State Park",
    "latitude": 41.9125,
    "longitude": -75.8656,
    "grid": "FN21bv",
    "locationDesc": "US-PA",
    "attempts": 67,
    "activations": 66,
    "qsos": 2852
  },
  {
    "reference": "US-1418",
    "name": "Samuel S Lewis State Park",
    "latitude": 39.9963,
    "longitude": -76.5497,
    "grid": "FM19rx",
    "locationDesc": "US-PA",
    "attempts": 616,
    "activations": 597,
    "qsos": 20086
  },
  {
    "reference": "US-1419",
    "name": "Sand Bridge State Park",
    "latitude": 40.9879,
    "longitude": -77.1273,
    "grid": "FN10kx",
    "locationDesc": "US-PA",
    "attempts": 24,
    "activations": 23,
    "qsos": 481
  },
  {
    "reference": "US-1420",
    "name": "Shawnee State Park",
    "latitude": 40.0249,
    "longitude": -78.6381,
    "grid": "FN00qa",
    "locationDesc": "US-PA",
    "attempts": 83,
    "activations": 81,
    "qsos": 2535
  },
  {
    "reference": "US-1421",
    "name": "Shikellamy State Park",
    "latitude": 40.8818,
    "longitude": -76.8017,
    "grid": "FN10ov",
    "locationDesc": "US-PA",
    "attempts": 147,
    "activations": 140,
    "qsos": 7612
  },
  {
    "reference": "US-1422",
    "name": "Sinnemahoning State Park",
    "latitude": 41.4733,
    "longitude": -78.0567,
    "grid": "FN01xl",
    "locationDesc": "US-PA",
    "attempts": 33,
    "activations": 32,
    "qsos": 2459
  },
  {
    "reference": "US-1423",
    "name": "Sizerville State Park",
    "latitude": 41.5965,
    "longitude": -78.1812,
    "grid": "FN01vo",
    "locationDesc": "US-PA",
    "attempts": 16,
    "activations": 14,
    "qsos": 421
  },
  {
    "reference": "US-1424",
    "name": "Susquehanna State Park",
    "latitude": 41.2246,
    "longitude": -77.0526,
    "grid": "FN11lf",
    "locationDesc": "US-PA",
    "attempts": 69,
    "activations": 69,
    "qsos": 3143
  },
  {
    "reference": "US-1425",
    "name": "Susquehannock State Park",
    "latitude": 39.806,
    "longitude": -76.2841,
    "grid": "FM19ut",
    "locationDesc": "US-PA",
    "attempts": 300,
    "activations": 290,
    "qsos": 13864
  },
  {
    "reference": "US-1426",
    "name": "Swatara State Park",
    "latitude": 40.483,
    "longitude": -76.5457,
    "grid": "FN10rl",
    "locationDesc": "US-PA",
    "attempts": 179,
    "activations": 176,
    "qsos": 7825
  },
  {
    "reference": "US-1427",
    "name": "Tobyhanna State Park",
    "latitude": 41.2044,
    "longitude": -75.4027,
    "grid": "FN21he",
    "locationDesc": "US-PA",
    "attempts": 78,
    "activations": 76,
    "qsos": 2925
  },
  {
    "reference": "US-1428",
    "name": "Trough Creek State Park",
    "latitude": 40.3119,
    "longitude": -78.1299,
    "grid": "FN00wh",
    "locationDesc": "US-PA",
    "attempts": 22,
    "activations": 21,
    "qsos": 549
  },
  {
    "reference": "US-1429",
    "name": "Tuscarora State Park",
    "latitude": 40.8091,
    "longitude": -76.021,
    "grid": "FN10xt",
    "locationDesc": "US-PA",
    "attempts": 165,
    "activations": 160,
    "qsos": 6031
  },
  {
    "reference": "US-1430",
    "name": "Tyler State Park",
    "latitude": 40.2327,
    "longitude": -74.9728,
    "grid": "FN20mf",
    "locationDesc": "US-PA",
    "attempts": 639,
    "activations": 598,
    "qsos": 23642
  },
  {
    "reference": "US-1431",
    "name": "Upper Pine Bottom State Park",
    "latitude": 41.3191,
    "longitude": -77.4211,
    "grid": "FN11gh",
    "locationDesc": "US-PA",
    "attempts": 16,
    "activations": 15,
    "qsos": 361
  },
  {
    "reference": "US-1432",
    "name": "Warriors' Path State Park",
    "latitude": 40.1961,
    "longitude": -78.2521,
    "grid": "FN00ue",
    "locationDesc": "US-PA",
    "attempts": 13,
    "activations": 11,
    "qsos": 380
  },
  {
    "reference": "US-1433",
    "name": "Whipple Dam State Park",
    "latitude": 40.6846,
    "longitude": -77.8636,
    "grid": "FN10bq",
    "locationDesc": "US-PA",
    "attempts": 37,
    "activations": 37,
    "qsos": 1273
  },
  {
    "reference": "US-1434",
    "name": "Worlds End State Park",
    "latitude": 41.4717,
    "longitude": -76.5816,
    "grid": "FN11rl",
    "locationDesc": "US-PA",
    "attempts": 36,
    "activations": 30,
    "qsos": 977
  },
  {
    "reference": "US-1435",
    "name": "Yellow Creek State Park",
    "latitude": 40.5734,
    "longitude": -79.0131,
    "grid": "FN00ln",
    "locationDesc": "US-PA",
    "attempts": 144,
    "activations": 140,
    "qsos": 6008
  },
  {
    "reference": "US-3379",
    "name": "Delaware Water Gap National Recreation Area",
    "latitude": 41.0706,
    "longitude": -75.0169,
    "grid": "FN21lb",
    "locationDesc": "US-NJ,US-PA",
    "attempts": 274,
    "activations": 255,
    "qsos": 7979
  },
  {
    "reference": "US-4239",
    "name": "North Country Trail National Scenic Trail",
    "latitude": 47.5195,
    "longitude": -101.453,
    "grid": "DN97gm",
    "locationDesc": "US-MI,US-MN,US-ND,US-NY,US-OH,US-PA,US-VT,US-WI",
    "attempts": 5438,
    "activations": 5349,
    "qsos": 219944
  },
  {
    "reference": "US-4355",
    "name": "Big Spring State Park",
    "latitude": 40.2626,
    "longitude": -77.661,
    "grid": "FN10eg",
    "locationDesc": "US-PA",
    "attempts": 51,
    "activations": 51,
    "qsos": 1321
  },
  {
    "reference": "US-4356",
    "name": "Boyd Big Tree State Preserve",
    "latitude": 40.3588,
    "longitude": -76.8676,
    "grid": "FN10ni",
    "locationDesc": "US-PA",
    "attempts": 147,
    "activations": 145,
    "qsos": 5374
  },
  {
    "reference": "US-4357",
    "name": "Bucktail State Park",
    "latitude": 41.3811,
    "longitude": -78.1507,
    "grid": "FN01wj",
    "locationDesc": "US-PA",
    "attempts": 13,
    "activations": 11,
    "qsos": 259
  },
  {
    "reference": "US-4358",
    "name": "Jacobsburg Environmental State Park",
    "latitude": 40.783,
    "longitude": -75.293,
    "grid": "FN20is",
    "locationDesc": "US-PA",
    "attempts": 121,
    "activations": 110,
    "qsos": 3911
  },
  {
    "reference": "US-4359",
    "name": "Jennings Environmental State Park",
    "latitude": 41.0091,
    "longitude": -80.004,
    "grid": "EN91xa",
    "locationDesc": "US-PA",
    "attempts": 183,
    "activations": 181,
    "qsos": 6135
  },
  {
    "reference": "US-4360",
    "name": "Joseph E. Ibberson State Conservation Area",
    "latitude": 40.4424,
    "longitude": -76.8596,
    "grid": "FN10nk",
    "locationDesc": "US-PA",
    "attempts": 87,
    "activations": 87,
    "qsos": 4163
  },
  {
    "reference": "US-4361",
    "name": "Kings Gap Environmental State Park",
    "latitude": 40.0926,
    "longitude": -77.2659,
    "grid": "FN10ic",
    "locationDesc": "US-PA",
    "attempts": 139,
    "activations": 135,
    "qsos": 3775
  },
  {
    "reference": "US-4362",
    "name": "Nolde Forest Environmental State Park",
    "latitude": 40.2768,
    "longitude": -75.9491,
    "grid": "FN20ag",
    "locationDesc": "US-PA",
    "attempts": 123,
    "activations": 115,
    "qsos": 2902
  },
  {
    "reference": "US-4363",
    "name": "Norristown Farm State Park",
    "latitude": 40.1462,
    "longitude": -75.3416,
    "grid": "FN20hd",
    "locationDesc": "US-PA",
    "attempts": 139,
    "activations": 132,
    "qsos": 4147
  },
  {
    "reference": "US-4364",
    "name": "Varden Conservation Area",
    "latitude": 41.4803,
    "longitude": -75.405,
    "grid": "FN21hl",
    "locationDesc": "US-PA",
    "attempts": 47,
    "activations": 42,
    "qsos": 2110
  },
  {
    "reference": "US-4556",
    "name": "Appalachian Trail National Scenic Trail",
    "latitude": 34.6267,
    "longitude": -84.1937,
    "grid": "EM74vp",
    "locationDesc": "US-CT,US-GA,US-MA,US-MD,US-ME,US-NC,US-NH,US-NJ,US-NY,US-PA,US-TN,US-VA,US-VT,US-WV",
    "attempts": 5706,
    "activations": 5473,
    "qsos": 200848
  },
  {
    "reference": "US-4564",
    "name": "Potomac Heritage Trail National Scenic Trail",
    "latitude": 38.6148,
    "longitude": -77.2748,
    "grid": "FM18io",
    "locationDesc": "US-DC,US-MD,US-PA,US-VA",
    "attempts": 3034,
    "activations": 2988,
    "qsos": 125691
  },
  {
    "reference": "US-4567",
    "name": "Captain John Smith Chesapeake National Historic Trail",
    "latitude": 38.9049,
    "longitude": -77.0681,
    "grid": "FM18lv",
    "locationDesc": "US-DC,US-DE,US-MD,US-NY,US-PA,US-VA",
    "attempts": 6463,
    "activations": 6361,
    "qsos": 271243
  },
  {
    "reference": "US-4572",
    "name": "Lewis and Clark National Historic Trail",
    "latitude": 41.2646,
    "longitude": -95.9246,
    "grid": "EN21ag",
    "locationDesc": "US-IA,US-ID,US-IL,US-IN,US-KS,US-KY,US-MO,US-MT,US-ND,US-NE,US-OH,US-OR,US-PA,US-SD,US-WA,US-WV",
    "attempts": 5205,
    "activations": 5063,
    "qsos": 254845
  },
  {
    "reference": "US-4582",
    "name": "Washington-Rochambeau Revolutionary Route National Historic Trail",
    "latitude": 41.312,
    "longitude": -73.9709,
    "grid": "FN31ah",
    "locationDesc": "US-CT,US-DC,US-DE,US-MA,US-MD,US-NJ,US-NY,US-PA,US-RI,US-VA",
    "attempts": 2560,
    "activations": 2513,
    "qsos": 104546
  },
  {
    "reference": "US-5462",
    "name": "Bald Eagle State Forest",
    "latitude": 40.8836,
    "longitude": -77.6709,
    "grid": "FN10dv",
    "locationDesc": "US-PA",
    "attempts": 129,
    "activations": 119,
    "qsos": 4822
  },
  {
    "reference": "US-5463",
    "name": "Buchanan State Forest",
    "latitude": 40.017,
    "longitude": -78.1522,
    "grid": "FN00wa",
    "locationDesc": "US-PA",
    "attempts": 106,
    "activations": 102,
    "qsos": 5757
  },
  {
    "reference": "US-5464",
    "name": "Clear Creek State Forest",
    "latitude": 41.3138,
    "longitude": -79.0811,
    "grid": "FN01lh",
    "locationDesc": "US-PA",
    "attempts": 65,
    "activations": 63,
    "qsos": 2439
  },
  {
    "reference": "US-5465",
    "name": "Cornplanter State Forest",
    "latitude": 41.6755,
    "longitude": -79.8533,
    "grid": "FN01bq",
    "locationDesc": "US-PA",
    "attempts": 64,
    "activations": 63,
    "qsos": 2262
  },
  {
    "reference": "US-5466",
    "name": "Delaware State Forest",
    "latitude": 41.3583,
    "longitude": -75.2042,
    "grid": "FN21ji",
    "locationDesc": "US-PA",
    "attempts": 206,
    "activations": 190,
    "qsos": 8628
  },
  {
    "reference": "US-5467",
    "name": "Elk State Forest",
    "latitude": 41.3254,
    "longitude": -78.2859,
    "grid": "FN01uh",
    "locationDesc": "US-PA",
    "attempts": 105,
    "activations": 98,
    "qsos": 6981
  },
  {
    "reference": "US-5468",
    "name": "Forbes State Forest",
    "latitude": 40.1298,
    "longitude": -79.1914,
    "grid": "FN00jd",
    "locationDesc": "US-PA",
    "attempts": 167,
    "activations": 159,
    "qsos": 7278
  },
  {
    "reference": "US-5469",
    "name": "Gallitzin State Forest",
    "latitude": 40.1991,
    "longitude": -78.6982,
    "grid": "FN00pe",
    "locationDesc": "US-PA",
    "attempts": 66,
    "activations": 65,
    "qsos": 2175
  },
  {
    "reference": "US-5470",
    "name": "Loyalsock State Forest",
    "latitude": 41.4926,
    "longitude": -76.8018,
    "grid": "FN11ol",
    "locationDesc": "US-PA",
    "attempts": 50,
    "activations": 47,
    "qsos": 2363
  },
  {
    "reference": "US-5471",
    "name": "Michaux State Forest",
    "latitude": 39.9729,
    "longitude": -77.4445,
    "grid": "FM19gx",
    "locationDesc": "US-PA",
    "attempts": 313,
    "activations": 294,
    "qsos": 11646
  },
  {
    "reference": "US-5472",
    "name": "Moshannon State Forest",
    "latitude": 41.199,
    "longitude": -78.4523,
    "grid": "FN01se",
    "locationDesc": "US-PA",
    "attempts": 267,
    "activations": 252,
    "qsos": 17344
  },
  {
    "reference": "US-5473",
    "name": "Pinchot State Forest",
    "latitude": 41.2,
    "longitude": -75.6302,
    "grid": "FN21ee",
    "locationDesc": "US-PA",
    "attempts": 173,
    "activations": 161,
    "qsos": 7622
  },
  {
    "reference": "US-5474",
    "name": "Rothrock State Forest",
    "latitude": 40.7113,
    "longitude": -77.8192,
    "grid": "FN10cr",
    "locationDesc": "US-PA",
    "attempts": 122,
    "activations": 107,
    "qsos": 4045
  },
  {
    "reference": "US-5475",
    "name": "Sproul State Forest",
    "latitude": 41.2471,
    "longitude": -77.7079,
    "grid": "FN11df",
    "locationDesc": "US-PA",
    "attempts": 19,
    "activations": 19,
    "qsos": 921
  },
  {
    "reference": "US-5476",
    "name": "Susquehannock State Forest",
    "latitude": 41.5,
    "longitude": -77.6815,
    "grid": "FN11dm",
    "locationDesc": "US-PA",
    "attempts": 103,
    "activations": 100,
    "qsos": 7593
  },
  {
    "reference": "US-5477",
    "name": "Tiadaghton State Forest",
    "latitude": 41.1384,
    "longitude": -77.0851,
    "grid": "FN11kd",
    "locationDesc": "US-PA",
    "attempts": 68,
    "activations": 63,
    "qsos": 2584
  },
  {
    "reference": "US-5478",
    "name": "Tioga State Forest",
    "latitude": 41.7486,
    "longitude": -77.547,
    "grid": "FN11fr",
    "locationDesc": "US-PA",
    "attempts": 152,
    "activations": 140,
    "qsos": 3661
  },
  {
    "reference": "US-5479",
    "name": "Tuscarora State Forest",
    "latitude": 40.3617,
    "longitude": -77.5556,
    "grid": "FN10fi",
    "locationDesc": "US-PA",
    "attempts": 71,
    "activations": 66,
    "qsos": 2053
  },
  {
    "reference": "US-5480",
    "name": "Weiser State Forest",
    "latitude": 40.8306,
    "longitude": -76.3346,
    "grid": "FN10tt",
    "locationDesc": "US-PA",
    "attempts": 123,
    "activations": 117,
    "qsos": 6682
  },
  {
    "reference": "US-5481",
    "name": "William Penn State Forest",
    "latitude": 40.2016,
    "longitude": -75.8108,
    "grid": "FN20ce",
    "locationDesc": "US-PA",
    "attempts": 265,
    "activations": 248,
    "qsos": 9386
  },
  {
    "reference": "US-6432",
    "name": "Washington Crossing State Historical Park",
    "latitude": 40.2951,
    "longitude": -74.8722,
    "grid": "FN20nh",
    "locationDesc": "US-PA",
    "attempts": 427,
    "activations": 392,
    "qsos": 11622
  },
  {
    "reference": "US-6433",
    "name": "White Clay Creek State Preserve",
    "latitude": 39.7496,
    "longitude": -75.771,
    "grid": "FM29cr",
    "locationDesc": "US-PA",
    "attempts": 99,
    "activations": 95,
    "qsos": 2915
  },
  {
    "reference": "US-8722",
    "name": "PA 012 State Game Land",
    "latitude": 41.6474,
    "longitude": -76.6991,
    "grid": "FN11pp",
    "locationDesc": "US-PA",
    "attempts": 7,
    "activations": 7,
    "qsos": 181
  },
  {
    "reference": "US-8723",
    "name": "PA 013 State Game Land",
    "latitude": 41.315,
    "longitude": -76.3491,
    "grid": "FN11th",
    "locationDesc": "US-PA",
    "attempts": 24,
    "activations": 24,
    "qsos": 1312
  },
  {
    "reference": "US-8724",
    "name": "PA 014 State Game Land",
    "latitude": 41.4681,
    "longitude": -78.4191,
    "grid": "FN01sl",
    "locationDesc": "US-PA",
    "attempts": 10,
    "activations": 8,
    "qsos": 415
  },
  {
    "reference": "US-8725",
    "name": "PA 024 State Game Land",
    "latitude": 41.4343,
    "longitude": -79.1988,
    "grid": "FN01jk",
    "locationDesc": "US-PA",
    "attempts": 48,
    "activations": 47,
    "qsos": 1543
  },
  {
    "reference": "US-8726",
    "name": "PA 025 State Game Land",
    "latitude": 41.4604,
    "longitude": -78.6063,
    "grid": "FN01ql",
    "locationDesc": "US-PA",
    "attempts": 6,
    "activations": 6,
    "qsos": 234
  },
  {
    "reference": "US-8727",
    "name": "PA 026 State Game Land",
    "latitude": 40.236,
    "longitude": -78.6639,
    "grid": "FN00qf",
    "locationDesc": "US-PA",
    "attempts": 12,
    "activations": 12,
    "qsos": 522
  },
  {
    "reference": "US-8728",
    "name": "PA 028 State Game Land",
    "latitude": 41.4158,
    "longitude": -78.9485,
    "grid": "FN01mj",
    "locationDesc": "US-PA",
    "attempts": 8,
    "activations": 8,
    "qsos": 235
  },
  {
    "reference": "US-8729",
    "name": "PA 029 State Game Land",
    "latitude": 41.744,
    "longitude": -79.1911,
    "grid": "FN01jr",
    "locationDesc": "US-PA",
    "attempts": 17,
    "activations": 17,
    "qsos": 689
  },
  {
    "reference": "US-8730",
    "name": "PA 030 State Game Land",
    "latitude": 41.6539,
    "longitude": -78.3686,
    "grid": "FN01tp",
    "locationDesc": "US-PA",
    "attempts": 7,
    "activations": 7,
    "qsos": 413
  },
  {
    "reference": "US-8731",
    "name": "PA 031 State Game Land",
    "latitude": 41.0173,
    "longitude": -79.045,
    "grid": "FN01la",
    "locationDesc": "US-PA",
    "attempts": 15,
    "activations": 14,
    "qsos": 1259
  },
  {
    "reference": "US-8732",
    "name": "PA 033 State Game Land",
    "latitude": 40.8571,
    "longitude": -78.1599,
    "grid": "FN00wu",
    "locationDesc": "US-PA",
    "attempts": 19,
    "activations": 18,
    "qsos": 616
  },
  {
    "reference": "US-8733",
    "name": "PA 034 State Game Land",
    "latitude": 41.2437,
    "longitude": -78.3297,
    "grid": "FN01uf",
    "locationDesc": "US-PA",
    "attempts": 7,
    "activations": 7,
    "qsos": 288
  },
  {
    "reference": "US-8734",
    "name": "PA 035 State Game Land",
    "latitude": 41.9587,
    "longitude": -75.6592,
    "grid": "FN21ex",
    "locationDesc": "US-PA",
    "attempts": 25,
    "activations": 24,
    "qsos": 789
  },
  {
    "reference": "US-8735",
    "name": "PA 036 State Game Land",
    "latitude": 41.62,
    "longitude": -76.5375,
    "grid": "FN11ro",
    "locationDesc": "US-PA",
    "attempts": 12,
    "activations": 12,
    "qsos": 294
  },
  {
    "reference": "US-8736",
    "name": "PA 037 State Game Land",
    "latitude": 41.8976,
    "longitude": -77.0936,
    "grid": "FN11kv",
    "locationDesc": "US-PA",
    "attempts": 102,
    "activations": 101,
    "qsos": 2465
  },
  {
    "reference": "US-8737",
    "name": "PA 038 State Game Land",
    "latitude": 41.0445,
    "longitude": -75.3726,
    "grid": "FN21hb",
    "locationDesc": "US-PA",
    "attempts": 19,
    "activations": 19,
    "qsos": 495
  },
  {
    "reference": "US-8738",
    "name": "PA 039 State Game Land",
    "latitude": 41.2858,
    "longitude": -79.9334,
    "grid": "FN01ag",
    "locationDesc": "US-PA",
    "attempts": 15,
    "activations": 15,
    "qsos": 600
  },
  {
    "reference": "US-8739",
    "name": "PA 040 State Game Land",
    "latitude": 41.0674,
    "longitude": -75.7356,
    "grid": "FN21db",
    "locationDesc": "US-PA",
    "attempts": 22,
    "activations": 22,
    "qsos": 913
  },
  {
    "reference": "US-8740",
    "name": "PA 041 State Game Land",
    "latitude": 40.2695,
    "longitude": -78.381,
    "grid": "FN00tg",
    "locationDesc": "US-PA",
    "attempts": 10,
    "activations": 10,
    "qsos": 465
  },
  {
    "reference": "US-8741",
    "name": "PA 042 State Game Land",
    "latitude": 40.3672,
    "longitude": -79.0522,
    "grid": "FN00li",
    "locationDesc": "US-PA",
    "attempts": 25,
    "activations": 23,
    "qsos": 903
  },
  {
    "reference": "US-8742",
    "name": "PA 043 State Game Land",
    "latitude": 40.1742,
    "longitude": -75.7797,
    "grid": "FN20ce",
    "locationDesc": "US-PA",
    "attempts": 63,
    "activations": 61,
    "qsos": 1300
  },
  {
    "reference": "US-8743",
    "name": "PA 044 State Game Land",
    "latitude": 41.3968,
    "longitude": -78.6966,
    "grid": "FN01pj",
    "locationDesc": "US-PA",
    "attempts": 22,
    "activations": 21,
    "qsos": 1480
  },
  {
    "reference": "US-8744",
    "name": "PA 045 State Game Land",
    "latitude": 41.3104,
    "longitude": -79.5882,
    "grid": "FN01eh",
    "locationDesc": "US-PA",
    "attempts": 9,
    "activations": 9,
    "qsos": 351
  },
  {
    "reference": "US-8745",
    "name": "PA 046 State Game Land",
    "latitude": 40.271,
    "longitude": -76.2505,
    "grid": "FN10ug",
    "locationDesc": "US-PA",
    "attempts": 204,
    "activations": 191,
    "qsos": 6473
  },
  {
    "reference": "US-8746",
    "name": "PA 047 State Game Land",
    "latitude": 41.4211,
    "longitude": -79.6228,
    "grid": "FN01ek",
    "locationDesc": "US-PA",
    "attempts": 16,
    "activations": 16,
    "qsos": 426
  },
  {
    "reference": "US-8747",
    "name": "PA 048 State Game Land",
    "latitude": 39.9012,
    "longitude": -78.6114,
    "grid": "FM09qv",
    "locationDesc": "US-PA",
    "attempts": 16,
    "activations": 16,
    "qsos": 513
  },
  {
    "reference": "US-8748",
    "name": "PA 049 State Game Land",
    "latitude": 39.8047,
    "longitude": -78.2988,
    "grid": "FM09ut",
    "locationDesc": "US-PA",
    "attempts": 12,
    "activations": 12,
    "qsos": 308
  },
  {
    "reference": "US-8749",
    "name": "PA 050 State Game Land",
    "latitude": 39.9902,
    "longitude": -79.0507,
    "grid": "FM09lx",
    "locationDesc": "US-PA",
    "attempts": 29,
    "activations": 28,
    "qsos": 821
  },
  {
    "reference": "US-8750",
    "name": "PA 051 State Game Land",
    "latitude": 39.8667,
    "longitude": -79.5895,
    "grid": "FM09eu",
    "locationDesc": "US-PA",
    "attempts": 51,
    "activations": 48,
    "qsos": 2461
  },
  {
    "reference": "US-8751",
    "name": "PA 052 State Game Land",
    "latitude": 40.1873,
    "longitude": -75.9539,
    "grid": "FN20ae",
    "locationDesc": "US-PA",
    "attempts": 86,
    "activations": 86,
    "qsos": 3001
  },
  {
    "reference": "US-8752",
    "name": "PA 053 State Game Land",
    "latitude": 39.9695,
    "longitude": -78.0328,
    "grid": "FM09xx",
    "locationDesc": "US-PA",
    "attempts": 13,
    "activations": 13,
    "qsos": 260
  },
  {
    "reference": "US-8753",
    "name": "PA 054 State Game Land",
    "latitude": 41.2701,
    "longitude": -78.817,
    "grid": "FN01og",
    "locationDesc": "US-PA",
    "attempts": 21,
    "activations": 21,
    "qsos": 1324
  },
  {
    "reference": "US-8754",
    "name": "PA 055 State Game Land",
    "latitude": 41.124,
    "longitude": -76.2751,
    "grid": "FN11uc",
    "locationDesc": "US-PA",
    "attempts": 13,
    "activations": 12,
    "qsos": 486
  },
  {
    "reference": "US-8755",
    "name": "PA 056 State Game Land",
    "latitude": 40.5159,
    "longitude": -75.1541,
    "grid": "FN20km",
    "locationDesc": "US-PA",
    "attempts": 93,
    "activations": 93,
    "qsos": 3378
  },
  {
    "reference": "US-8756",
    "name": "PA 057 State Game Land",
    "latitude": 41.3872,
    "longitude": -76.2732,
    "grid": "FN11uj",
    "locationDesc": "US-PA",
    "attempts": 33,
    "activations": 33,
    "qsos": 1558
  },
  {
    "reference": "US-8757",
    "name": "PA 058 State Game Land",
    "latitude": 40.9176,
    "longitude": -76.2769,
    "grid": "FN10uw",
    "locationDesc": "US-PA",
    "attempts": 19,
    "activations": 18,
    "qsos": 743
  },
  {
    "reference": "US-8758",
    "name": "PA 059 State Game Land",
    "latitude": 41.8773,
    "longitude": -78.2141,
    "grid": "FN01vv",
    "locationDesc": "US-PA",
    "attempts": 3,
    "activations": 3,
    "qsos": 127
  },
  {
    "reference": "US-8759",
    "name": "PA 060 State Game Land",
    "latitude": 40.7883,
    "longitude": -78.2355,
    "grid": "FN00vs",
    "locationDesc": "US-PA",
    "attempts": 11,
    "activations": 11,
    "qsos": 445
  },
  {
    "reference": "US-8760",
    "name": "PA 061 State Game Land",
    "latitude": 41.761,
    "longitude": -78.2619,
    "grid": "FN01us",
    "locationDesc": "US-PA",
    "attempts": 7,
    "activations": 7,
    "qsos": 276
  },
  {
    "reference": "US-8761",
    "name": "PA 062 State Game Land",
    "latitude": 41.7552,
    "longitude": -78.572,
    "grid": "FN01rs",
    "locationDesc": "US-PA",
    "attempts": 21,
    "activations": 21,
    "qsos": 731
  },
  {
    "reference": "US-8762",
    "name": "PA 063 State Game Land",
    "latitude": 41.2607,
    "longitude": -79.4761,
    "grid": "FN01gg",
    "locationDesc": "US-PA",
    "attempts": 15,
    "activations": 15,
    "qsos": 401
  },
  {
    "reference": "US-8763",
    "name": "PA 064 State Game Land",
    "latitude": 41.7672,
    "longitude": -77.6095,
    "grid": "FN11es",
    "locationDesc": "US-PA",
    "attempts": 20,
    "activations": 19,
    "qsos": 471
  },
  {
    "reference": "US-8764",
    "name": "PA 065 State Game Land",
    "latitude": 39.8942,
    "longitude": -78.2287,
    "grid": "FM09vv",
    "locationDesc": "US-PA",
    "attempts": 18,
    "activations": 17,
    "qsos": 602
  },
  {
    "reference": "US-8765",
    "name": "PA 066 State Game Land",
    "latitude": 41.4517,
    "longitude": -76.2837,
    "grid": "FN11uk",
    "locationDesc": "US-PA",
    "attempts": 15,
    "activations": 15,
    "qsos": 644
  },
  {
    "reference": "US-8766",
    "name": "PA 067 State Game Land",
    "latitude": 40.2188,
    "longitude": -78.1829,
    "grid": "FN00vf",
    "locationDesc": "US-PA",
    "attempts": 7,
    "activations": 7,
    "qsos": 217
  },
  {
    "reference": "US-8767",
    "name": "PA 068 State Game Land",
    "latitude": 41.4796,
    "longitude": -77.4433,
    "grid": "FN11gl",
    "locationDesc": "US-PA",
    "attempts": 10,
    "activations": 9,
    "qsos": 306
  },
  {
    "reference": "US-8768",
    "name": "PA 069 State Game Land",
    "latitude": 41.6212,
    "longitude": -79.9169,
    "grid": "FN01ao",
    "locationDesc": "US-PA",
    "attempts": 16,
    "activations": 16,
    "qsos": 461
  },
  {
    "reference": "US-8769",
    "name": "PA 070 State Game Land",
    "latitude": 41.9621,
    "longitude": -75.4924,
    "grid": "FN21gx",
    "locationDesc": "US-PA",
    "attempts": 6,
    "activations": 6,
    "qsos": 189
  },
  {
    "reference": "US-8770",
    "name": "PA 071 State Game Land",
    "latitude": 40.3668,
    "longitude": -77.9611,
    "grid": "FN10ai",
    "locationDesc": "US-PA",
    "attempts": 12,
    "activations": 10,
    "qsos": 251
  },
  {
    "reference": "US-8771",
    "name": "PA 072 State Game Land",
    "latitude": 41.2567,
    "longitude": -79.3908,
    "grid": "FN01hg",
    "locationDesc": "US-PA",
    "attempts": 28,
    "activations": 27,
    "qsos": 700
  },
  {
    "reference": "US-8772",
    "name": "PA 073 State Game Land",
    "latitude": 40.2699,
    "longitude": -78.2607,
    "grid": "FN00ug",
    "locationDesc": "US-PA",
    "attempts": 19,
    "activations": 19,
    "qsos": 674
  },
  {
    "reference": "US-8773",
    "name": "PA 074 State Game Land",
    "latitude": 41.2186,
    "longitude": -79.3178,
    "grid": "FN01if",
    "locationDesc": "US-PA",
    "attempts": 16,
    "activations": 15,
    "qsos": 462
  },
  {
    "reference": "US-8774",
    "name": "PA 075 State Game Land",
    "latitude": 41.4159,
    "longitude": -77.4143,
    "grid": "FN11hj",
    "locationDesc": "US-PA",
    "attempts": 9,
    "activations": 9,
    "qsos": 285
  },
  {
    "reference": "US-8775",
    "name": "PA 076 State Game Land",
    "latitude": 40.1231,
    "longitude": -77.7264,
    "grid": "FN10dc",
    "locationDesc": "US-PA",
    "attempts": 10,
    "activations": 10,
    "qsos": 263
  },
  {
    "reference": "US-8776",
    "name": "PA 077 State Game Land",
    "latitude": 41.17,
    "longitude": -78.7714,
    "grid": "FN01oe",
    "locationDesc": "US-PA",
    "attempts": 20,
    "activations": 20,
    "qsos": 2070
  },
  {
    "reference": "US-8777",
    "name": "PA 078 State Game Land",
    "latitude": 40.9846,
    "longitude": -78.2579,
    "grid": "FN00ux",
    "locationDesc": "US-PA",
    "attempts": 9,
    "activations": 9,
    "qsos": 445
  },
  {
    "reference": "US-8778",
    "name": "PA 079 State Game Land",
    "latitude": 40.5055,
    "longitude": -78.8918,
    "grid": "FN00nm",
    "locationDesc": "US-PA",
    "attempts": 20,
    "activations": 20,
    "qsos": 635
  },
  {
    "reference": "US-8779",
    "name": "PA 080 State Game Land",
    "latitude": 40.5163,
    "longitude": -76.4186,
    "grid": "FN10sm",
    "locationDesc": "US-PA",
    "attempts": 46,
    "activations": 45,
    "qsos": 1946
  },
  {
    "reference": "US-8780",
    "name": "PA 081 State Game Land",
    "latitude": 40.1138,
    "longitude": -77.946,
    "grid": "FN10ac",
    "locationDesc": "US-PA",
    "attempts": 10,
    "activations": 9,
    "qsos": 309
  },
  {
    "reference": "US-8781",
    "name": "PA 082 State Game Land",
    "latitude": 39.7888,
    "longitude": -78.9335,
    "grid": "FM09ms",
    "locationDesc": "US-PA",
    "attempts": 11,
    "activations": 11,
    "qsos": 423
  },
  {
    "reference": "US-8782",
    "name": "PA 083 State Game Land",
    "latitude": 39.8665,
    "longitude": -76.4065,
    "grid": "FM19tu",
    "locationDesc": "US-PA",
    "attempts": 83,
    "activations": 81,
    "qsos": 2127
  },
  {
    "reference": "US-8783",
    "name": "PA 084 State Game Land",
    "latitude": 40.7495,
    "longitude": -76.7896,
    "grid": "FN10or",
    "locationDesc": "US-PA",
    "attempts": 12,
    "activations": 11,
    "qsos": 425
  },
  {
    "reference": "US-8784",
    "name": "PA 085 State Game Land",
    "latitude": 41.8024,
    "longitude": -79.9854,
    "grid": "FN01at",
    "locationDesc": "US-PA",
    "attempts": 16,
    "activations": 16,
    "qsos": 287
  },
  {
    "reference": "US-8785",
    "name": "PA 086 State Game Land",
    "latitude": 41.755,
    "longitude": -79.3,
    "grid": "FN01is",
    "locationDesc": "US-PA",
    "attempts": 57,
    "activations": 56,
    "qsos": 2310
  },
  {
    "reference": "US-8786",
    "name": "PA 087 State Game Land",
    "latitude": 40.937,
    "longitude": -78.6734,
    "grid": "FN00pw",
    "locationDesc": "US-PA",
    "attempts": 16,
    "activations": 14,
    "qsos": 1333
  },
  {
    "reference": "US-8787",
    "name": "PA 088 State Game Land",
    "latitude": 40.4753,
    "longitude": -77.389,
    "grid": "FN10hl",
    "locationDesc": "US-PA",
    "attempts": 19,
    "activations": 19,
    "qsos": 743
  },
  {
    "reference": "US-8788",
    "name": "PA 089 State Game Land",
    "latitude": 41.308,
    "longitude": -77.4789,
    "grid": "FN11gh",
    "locationDesc": "US-PA",
    "attempts": 12,
    "activations": 11,
    "qsos": 251
  },
  {
    "reference": "US-8789",
    "name": "PA 090 State Game Land",
    "latitude": 41.1022,
    "longitude": -78.4182,
    "grid": "FN01sc",
    "locationDesc": "US-PA",
    "attempts": 14,
    "activations": 14,
    "qsos": 1634
  },
  {
    "reference": "US-8790",
    "name": "PA 091 State Game Land",
    "latitude": 41.1359,
    "longitude": -75.6368,
    "grid": "FN21ed",
    "locationDesc": "US-PA",
    "attempts": 85,
    "activations": 84,
    "qsos": 5624
  },
  {
    "reference": "US-8791",
    "name": "PA 092 State Game Land",
    "latitude": 41.0166,
    "longitude": -77.7079,
    "grid": "FN11da",
    "locationDesc": "US-PA",
    "attempts": 12,
    "activations": 12,
    "qsos": 374
  },
  {
    "reference": "US-8792",
    "name": "PA 093 State Game Land",
    "latitude": 40.0844,
    "longitude": -78.8868,
    "grid": "FN00nc",
    "locationDesc": "US-PA",
    "attempts": 30,
    "activations": 30,
    "qsos": 829
  },
  {
    "reference": "US-8793",
    "name": "PA 094 State Game Land",
    "latitude": 41.1572,
    "longitude": -78.3806,
    "grid": "FN01td",
    "locationDesc": "US-PA",
    "attempts": 4,
    "activations": 4,
    "qsos": 188
  },
  {
    "reference": "US-8794",
    "name": "PA 095 State Game Land",
    "latitude": 41.0812,
    "longitude": -79.7048,
    "grid": "FN01db",
    "locationDesc": "US-PA",
    "attempts": 33,
    "activations": 33,
    "qsos": 1799
  },
  {
    "reference": "US-8795",
    "name": "PA 096 State Game Land",
    "latitude": 41.5815,
    "longitude": -79.8222,
    "grid": "FN01cn",
    "locationDesc": "US-PA",
    "attempts": 12,
    "activations": 12,
    "qsos": 302
  },
  {
    "reference": "US-8796",
    "name": "PA 097 State Game Land",
    "latitude": 39.9966,
    "longitude": -78.3888,
    "grid": "FM09tx",
    "locationDesc": "US-PA",
    "attempts": 16,
    "activations": 16,
    "qsos": 524
  },
  {
    "reference": "US-8797",
    "name": "PA 098 State Game Land",
    "latitude": 40.9338,
    "longitude": -78.3463,
    "grid": "FN00tw",
    "locationDesc": "US-PA",
    "attempts": 7,
    "activations": 7,
    "qsos": 252
  },
  {
    "reference": "US-8798",
    "name": "PA 099 State Game Land",
    "latitude": 40.204,
    "longitude": -77.9987,
    "grid": "FN10ae",
    "locationDesc": "US-PA",
    "attempts": 9,
    "activations": 9,
    "qsos": 292
  },
  {
    "reference": "US-8799",
    "name": "PA 100 State Game Land",
    "latitude": 41.0779,
    "longitude": -77.9832,
    "grid": "FN11ab",
    "locationDesc": "US-PA",
    "attempts": 8,
    "activations": 5,
    "qsos": 193
  },
  {
    "reference": "US-8800",
    "name": "PA 101 State Game Land",
    "latitude": 41.8596,
    "longitude": -80.488,
    "grid": "EN91su",
    "locationDesc": "US-PA",
    "attempts": 35,
    "activations": 35,
    "qsos": 1697
  },
  {
    "reference": "US-8801",
    "name": "PA 102 State Game Land",
    "latitude": 41.927,
    "longitude": -79.8034,
    "grid": "FN01cw",
    "locationDesc": "US-PA",
    "attempts": 14,
    "activations": 14,
    "qsos": 755
  },
  {
    "reference": "US-8802",
    "name": "PA 103 State Game Land",
    "latitude": 40.9996,
    "longitude": -77.8935,
    "grid": "FN10bx",
    "locationDesc": "US-PA",
    "attempts": 9,
    "activations": 9,
    "qsos": 288
  },
  {
    "reference": "US-8803",
    "name": "PA 104 State Game Land",
    "latitude": 39.8823,
    "longitude": -78.7679,
    "grid": "FM09ov",
    "locationDesc": "US-PA",
    "attempts": 10,
    "activations": 10,
    "qsos": 339
  },
  {
    "reference": "US-8804",
    "name": "PA 105 State Game Land",
    "latitude": 40.9788,
    "longitude": -79.6447,
    "grid": "FN00ex",
    "locationDesc": "US-PA",
    "attempts": 17,
    "activations": 17,
    "qsos": 671
  },
  {
    "reference": "US-8805",
    "name": "PA 106 State Game Land",
    "latitude": 40.6332,
    "longitude": -75.9497,
    "grid": "FN20ap",
    "locationDesc": "US-PA",
    "attempts": 88,
    "activations": 86,
    "qsos": 3777
  },
  {
    "reference": "US-8806",
    "name": "PA 107 State Game Land",
    "latitude": 40.6435,
    "longitude": -77.4642,
    "grid": "FN10gp",
    "locationDesc": "US-PA",
    "attempts": 26,
    "activations": 26,
    "qsos": 878
  },
  {
    "reference": "US-8807",
    "name": "PA 108 State Game Land",
    "latitude": 40.6534,
    "longitude": -78.4983,
    "grid": "FN00sp",
    "locationDesc": "US-PA",
    "attempts": 20,
    "activations": 20,
    "qsos": 643
  },
  {
    "reference": "US-8808",
    "name": "PA 109 State Game Land",
    "latitude": 41.9815,
    "longitude": -79.9945,
    "grid": "FN01ax",
    "locationDesc": "US-PA",
    "attempts": 42,
    "activations": 42,
    "qsos": 2480
  },
  {
    "reference": "US-8809",
    "name": "PA 110 State Game Land",
    "latitude": 40.5313,
    "longitude": -76.1241,
    "grid": "FN10wm",
    "locationDesc": "US-PA",
    "attempts": 71,
    "activations": 68,
    "qsos": 2087
  },
  {
    "reference": "US-8810",
    "name": "PA 111 State Game Land",
    "latitude": 39.8587,
    "longitude": -79.3201,
    "grid": "FM09iu",
    "locationDesc": "US-PA",
    "attempts": 12,
    "activations": 11,
    "qsos": 335
  },
  {
    "reference": "US-8811",
    "name": "PA 112 State Game Land",
    "latitude": 40.3918,
    "longitude": -77.9145,
    "grid": "FN10bj",
    "locationDesc": "US-PA",
    "attempts": 8,
    "activations": 8,
    "qsos": 284
  },
  {
    "reference": "US-8812",
    "name": "PA 113 State Game Land",
    "latitude": 40.538,
    "longitude": -77.7073,
    "grid": "FN10dm",
    "locationDesc": "US-PA",
    "attempts": 9,
    "activations": 9,
    "qsos": 412
  },
  {
    "reference": "US-8813",
    "name": "PA 114 State Game Land",
    "latitude": 41.3906,
    "longitude": -77.2034,
    "grid": "FN11jj",
    "locationDesc": "US-PA",
    "attempts": 8,
    "activations": 8,
    "qsos": 263
  },
  {
    "reference": "US-8814",
    "name": "PA 115 State Game Land",
    "latitude": 40.9645,
    "longitude": -76.6859,
    "grid": "FN10px",
    "locationDesc": "US-PA",
    "attempts": 24,
    "activations": 22,
    "qsos": 1029
  },
  {
    "reference": "US-8815",
    "name": "PA 116 State Game Land",
    "latitude": 41.4252,
    "longitude": -74.9713,
    "grid": "FN21mk",
    "locationDesc": "US-PA",
    "attempts": 37,
    "activations": 32,
    "qsos": 1046
  },
  {
    "reference": "US-8816",
    "name": "PA 117 State Game Land",
    "latitude": 40.4152,
    "longitude": -80.3767,
    "grid": "EN90tj",
    "locationDesc": "US-PA",
    "attempts": 99,
    "activations": 94,
    "qsos": 2940
  },
  {
    "reference": "US-8817",
    "name": "PA 118 State Game Land",
    "latitude": 40.4565,
    "longitude": -78.1639,
    "grid": "FN00wk",
    "locationDesc": "US-PA",
    "attempts": 9,
    "activations": 9,
    "qsos": 404
  },
  {
    "reference": "US-8818",
    "name": "PA 119 State Game Land",
    "latitude": 41.1226,
    "longitude": -75.8359,
    "grid": "FN21bc",
    "locationDesc": "US-PA",
    "attempts": 15,
    "activations": 15,
    "qsos": 524
  },
  {
    "reference": "US-8819",
    "name": "PA 120 State Game Land",
    "latitude": 40.7927,
    "longitude": -78.5695,
    "grid": "FN00rt",
    "locationDesc": "US-PA",
    "attempts": 7,
    "activations": 7,
    "qsos": 291
  },
  {
    "reference": "US-8820",
    "name": "PA 121 State Game Land",
    "latitude": 40.2037,
    "longitude": -78.0511,
    "grid": "FN00xe",
    "locationDesc": "US-PA",
    "attempts": 10,
    "activations": 9,
    "qsos": 234
  },
  {
    "reference": "US-8821",
    "name": "PA 122 State Game Land",
    "latitude": 41.7058,
    "longitude": -79.8104,
    "grid": "FN01cq",
    "locationDesc": "US-PA",
    "attempts": 11,
    "activations": 11,
    "qsos": 270
  },
  {
    "reference": "US-8822",
    "name": "PA 123 State Game Land",
    "latitude": 41.8954,
    "longitude": -76.7842,
    "grid": "FN11ov",
    "locationDesc": "US-PA",
    "attempts": 12,
    "activations": 11,
    "qsos": 435
  },
  {
    "reference": "US-8823",
    "name": "PA 124 State Game Land",
    "latitude": 39.8343,
    "longitude": -77.9733,
    "grid": "FM19au",
    "locationDesc": "US-PA",
    "attempts": 9,
    "activations": 9,
    "qsos": 242
  },
  {
    "reference": "US-8824",
    "name": "PA 126 State Game Land",
    "latitude": 41.2178,
    "longitude": -77.0574,
    "grid": "FN11lf",
    "locationDesc": "US-PA",
    "attempts": 12,
    "activations": 12,
    "qsos": 250
  },
  {
    "reference": "US-8825",
    "name": "PA 127 State Game Land",
    "latitude": 41.1688,
    "longitude": -75.4347,
    "grid": "FN21ge",
    "locationDesc": "US-PA",
    "attempts": 40,
    "activations": 37,
    "qsos": 986
  },
  {
    "reference": "US-8826",
    "name": "PA 128 State Game Land",
    "latitude": 39.7992,
    "longitude": -78.2413,
    "grid": "FM09vt",
    "locationDesc": "US-PA",
    "attempts": 23,
    "activations": 23,
    "qsos": 444
  },
  {
    "reference": "US-8827",
    "name": "PA 129 State Game Land",
    "latitude": 41.0358,
    "longitude": -75.5841,
    "grid": "FN21ea",
    "locationDesc": "US-PA",
    "attempts": 24,
    "activations": 22,
    "qsos": 688
  },
  {
    "reference": "US-8828",
    "name": "PA 130 State Game Land",
    "latitude": 41.3338,
    "longitude": -80.0555,
    "grid": "EN91xi",
    "locationDesc": "US-PA",
    "attempts": 21,
    "activations": 19,
    "qsos": 687
  },
  {
    "reference": "US-8829",
    "name": "PA 131 State Game Land",
    "latitude": 40.6501,
    "longitude": -78.1807,
    "grid": "FN00vp",
    "locationDesc": "US-PA",
    "attempts": 9,
    "activations": 9,
    "qsos": 213
  },
  {
    "reference": "US-8830",
    "name": "PA 132 State Game Land",
    "latitude": 40.6739,
    "longitude": -76.5182,
    "grid": "FN10rq",
    "locationDesc": "US-PA",
    "attempts": 14,
    "activations": 14,
    "qsos": 405
  },
  {
    "reference": "US-8831",
    "name": "PA 133 State Game Land",
    "latitude": 41.4095,
    "longitude": -77.0391,
    "grid": "FN11lj",
    "locationDesc": "US-PA",
    "attempts": 11,
    "activations": 11,
    "qsos": 318
  },
  {
    "reference": "US-8832",
    "name": "PA 134 State Game Land",
    "latitude": 41.3851,
    "longitude": -76.8092,
    "grid": "FN11oj",
    "locationDesc": "US-PA",
    "attempts": 6,
    "activations": 5,
    "qsos": 165
  },
  {
    "reference": "US-8833",
    "name": "PA 135 State Game Land",
    "latitude": 41.2484,
    "longitude": -75.5517,
    "grid": "FN21ff",
    "locationDesc": "US-PA",
    "attempts": 24,
    "activations": 23,
    "qsos": 1015
  },
  {
    "reference": "US-8834",
    "name": "PA 136 State Game Land",
    "latitude": 39.8513,
    "longitude": -76.1103,
    "grid": "FM19wu",
    "locationDesc": "US-PA",
    "attempts": 60,
    "activations": 58,
    "qsos": 1753
  },
  {
    "reference": "US-8835",
    "name": "PA 137 State Game Land",
    "latitude": 40.9768,
    "longitude": -79.3431,
    "grid": "FN00hx",
    "locationDesc": "US-PA",
    "attempts": 24,
    "activations": 23,
    "qsos": 799
  },
  {
    "reference": "US-8836",
    "name": "PA 138 State Game Land",
    "latitude": 39.7937,
    "longitude": -79.7447,
    "grid": "FM09dt",
    "locationDesc": "US-PA",
    "attempts": 31,
    "activations": 30,
    "qsos": 1281
  },
  {
    "reference": "US-8837",
    "name": "PA 139 State Game Land",
    "latitude": 40.3918,
    "longitude": -75.3119,
    "grid": "FN20ij",
    "locationDesc": "US-PA",
    "attempts": 225,
    "activations": 223,
    "qsos": 5378
  },
  {
    "reference": "US-8838",
    "name": "PA 140 State Game Land",
    "latitude": 41.9428,
    "longitude": -76.0872,
    "grid": "FN11ww",
    "locationDesc": "US-PA",
    "attempts": 11,
    "activations": 11,
    "qsos": 560
  },
  {
    "reference": "US-8839",
    "name": "PA 141 State Game Land",
    "latitude": 40.9691,
    "longitude": -75.6576,
    "grid": "FN20ex",
    "locationDesc": "US-PA",
    "attempts": 64,
    "activations": 58,
    "qsos": 2717
  },
  {
    "reference": "US-8840",
    "name": "PA 142 State Game Land",
    "latitude": 41.5898,
    "longitude": -76.3521,
    "grid": "FN11to",
    "locationDesc": "US-PA",
    "attempts": 8,
    "activations": 8,
    "qsos": 346
  },
  {
    "reference": "US-8841",
    "name": "PA 143 State Game Land",
    "latitude": 41.8427,
    "longitude": -79.4715,
    "grid": "FN01gu",
    "locationDesc": "US-PA",
    "attempts": 17,
    "activations": 17,
    "qsos": 604
  },
  {
    "reference": "US-8842",
    "name": "PA 144 State Game Land",
    "latitude": 41.8778,
    "longitude": -79.7441,
    "grid": "FN01dv",
    "locationDesc": "US-PA",
    "attempts": 13,
    "activations": 13,
    "qsos": 623
  },
  {
    "reference": "US-8843",
    "name": "PA 145 State Game Land",
    "latitude": 40.2379,
    "longitude": -76.5219,
    "grid": "FN10rf",
    "locationDesc": "US-PA",
    "attempts": 208,
    "activations": 200,
    "qsos": 8741
  },
  {
    "reference": "US-8844",
    "name": "PA 146 State Game Land",
    "latitude": 41.7325,
    "longitude": -79.9755,
    "grid": "FN01ar",
    "locationDesc": "US-PA",
    "attempts": 19,
    "activations": 18,
    "qsos": 580
  },
  {
    "reference": "US-8845",
    "name": "PA 147 State Game Land",
    "latitude": 40.3941,
    "longitude": -78.3494,
    "grid": "FN00tj",
    "locationDesc": "US-PA",
    "attempts": 13,
    "activations": 13,
    "qsos": 361
  },
  {
    "reference": "US-8846",
    "name": "PA 148 State Game Land",
    "latitude": 40.8597,
    "longitude": -80.3572,
    "grid": "EN90tu",
    "locationDesc": "US-PA",
    "attempts": 67,
    "activations": 66,
    "qsos": 3097
  },
  {
    "reference": "US-8847",
    "name": "PA 149 State Game Land",
    "latitude": 41.0235,
    "longitude": -75.7708,
    "grid": "FN21ca",
    "locationDesc": "US-PA",
    "attempts": 17,
    "activations": 16,
    "qsos": 594
  },
  {
    "reference": "US-8848",
    "name": "PA 150 State Game Land",
    "latitude": 41.0937,
    "longitude": -80.4655,
    "grid": "EN91sc",
    "locationDesc": "US-PA",
    "attempts": 78,
    "activations": 73,
    "qsos": 2200
  },
  {
    "reference": "US-8849",
    "name": "PA 151 State Game Land",
    "latitude": 41.1027,
    "longitude": -80.1315,
    "grid": "EN91wc",
    "locationDesc": "US-PA",
    "attempts": 40,
    "activations": 40,
    "qsos": 1241
  },
  {
    "reference": "US-8850",
    "name": "PA 152 State Game Land",
    "latitude": 41.8473,
    "longitude": -80.2266,
    "grid": "EN91vu",
    "locationDesc": "US-PA",
    "attempts": 28,
    "activations": 28,
    "qsos": 923
  },
  {
    "reference": "US-8851",
    "name": "PA 153 State Game Land",
    "latitude": 40.3921,
    "longitude": -79.1607,
    "grid": "FN00kj",
    "locationDesc": "US-PA",
    "attempts": 44,
    "activations": 44,
    "qsos": 1974
  },
  {
    "reference": "US-8852",
    "name": "PA 154 State Game Land",
    "latitude": 41.9891,
    "longitude": -79.6775,
    "grid": "FN01dx",
    "locationDesc": "US-PA",
    "attempts": 18,
    "activations": 18,
    "qsos": 806
  },
  {
    "reference": "US-8853",
    "name": "PA 155 State Game Land",
    "latitude": 42.0085,
    "longitude": -79.8766,
    "grid": "FN02ba",
    "locationDesc": "US-PA",
    "attempts": 23,
    "activations": 23,
    "qsos": 1276
  },
  {
    "reference": "US-8854",
    "name": "PA 156 State Game Land",
    "latitude": 40.2469,
    "longitude": -76.3576,
    "grid": "FN10tf",
    "locationDesc": "US-PA",
    "attempts": 144,
    "activations": 136,
    "qsos": 3647
  },
  {
    "reference": "US-8855",
    "name": "PA 157 State Game Land",
    "latitude": 40.4925,
    "longitude": -75.2067,
    "grid": "FN20jl",
    "locationDesc": "US-PA",
    "attempts": 123,
    "activations": 120,
    "qsos": 3610
  },
  {
    "reference": "US-8856",
    "name": "PA 158 State Game Land",
    "latitude": 40.7263,
    "longitude": -78.3398,
    "grid": "FN00tr",
    "locationDesc": "US-PA",
    "attempts": 12,
    "activations": 12,
    "qsos": 392
  },
  {
    "reference": "US-8857",
    "name": "PA 159 State Game Land",
    "latitude": 41.7254,
    "longitude": -75.2593,
    "grid": "FN21ir",
    "locationDesc": "US-PA",
    "attempts": 11,
    "activations": 11,
    "qsos": 552
  },
  {
    "reference": "US-8858",
    "name": "PA 160 State Game Land",
    "latitude": 40.5415,
    "longitude": -76.3402,
    "grid": "FN10tm",
    "locationDesc": "US-PA",
    "attempts": 23,
    "activations": 23,
    "qsos": 1100
  },
  {
    "reference": "US-8859",
    "name": "PA 161 State Game Land",
    "latitude": 41.9985,
    "longitude": -79.9189,
    "grid": "FN01ax",
    "locationDesc": "US-PA",
    "attempts": 27,
    "activations": 26,
    "qsos": 1050
  },
  {
    "reference": "US-8860",
    "name": "PA 162 State Game Land",
    "latitude": 41.9786,
    "longitude": -79.8412,
    "grid": "FN01bx",
    "locationDesc": "US-PA",
    "attempts": 14,
    "activations": 14,
    "qsos": 540
  },
  {
    "reference": "US-8861",
    "name": "PA 163 State Game Land",
    "latitude": 42.145,
    "longitude": -79.8421,
    "grid": "FN02bd",
    "locationDesc": "US-PA",
    "attempts": 24,
    "activations": 24,
    "qsos": 843
  },
  {
    "reference": "US-8862",
    "name": "PA 164 State Game Land",
    "latitude": 40.8945,
    "longitude": -79.765,
    "grid": "FN00cv",
    "locationDesc": "US-PA",
    "attempts": 35,
    "activations": 33,
    "qsos": 728
  },
  {
    "reference": "US-8863",
    "name": "PA 165 State Game Land",
    "latitude": 40.7865,
    "longitude": -76.6667,
    "grid": "FN10ps",
    "locationDesc": "US-PA",
    "attempts": 12,
    "activations": 12,
    "qsos": 405
  },
  {
    "reference": "US-8864",
    "name": "PA 166 State Game Land",
    "latitude": 40.5319,
    "longitude": -78.2072,
    "grid": "FN00vm",
    "locationDesc": "US-PA",
    "attempts": 15,
    "activations": 13,
    "qsos": 638
  },
  {
    "reference": "US-8865",
    "name": "PA 167 State Game Land",
    "latitude": 41.9987,
    "longitude": -79.7786,
    "grid": "FN01cx",
    "locationDesc": "US-PA",
    "attempts": 23,
    "activations": 23,
    "qsos": 1354
  },
  {
    "reference": "US-8866",
    "name": "PA 168 State Game Land",
    "latitude": 40.8305,
    "longitude": -75.3564,
    "grid": "FN20ht",
    "locationDesc": "US-PA",
    "attempts": 34,
    "activations": 34,
    "qsos": 1178
  },
  {
    "reference": "US-8867",
    "name": "PA 169 State Game Land",
    "latitude": 40.1637,
    "longitude": -77.5093,
    "grid": "FN10fd",
    "locationDesc": "US-PA",
    "attempts": 24,
    "activations": 24,
    "qsos": 688
  },
  {
    "reference": "US-8868",
    "name": "PA 170 State Game Land",
    "latitude": 40.3227,
    "longitude": -77.0709,
    "grid": "FN10lh",
    "locationDesc": "US-PA",
    "attempts": 67,
    "activations": 66,
    "qsos": 1709
  },
  {
    "reference": "US-8869",
    "name": "PA 171 State Game Land",
    "latitude": 40.5541,
    "longitude": -77.2126,
    "grid": "FN10jn",
    "locationDesc": "US-PA",
    "attempts": 5,
    "activations": 5,
    "qsos": 247
  },
  {
    "reference": "US-8870",
    "name": "PA 172 State Game Land",
    "latitude": 41.622,
    "longitude": -76.3052,
    "grid": "FN11uo",
    "locationDesc": "US-PA",
    "attempts": 13,
    "activations": 12,
    "qsos": 483
  },
  {
    "reference": "US-8871",
    "name": "PA 173 State Game Land",
    "latitude": 40.6754,
    "longitude": -80.4811,
    "grid": "EN90sq",
    "locationDesc": "US-PA",
    "attempts": 43,
    "activations": 41,
    "qsos": 1398
  },
  {
    "reference": "US-8872",
    "name": "PA 174 State Game Land",
    "latitude": 40.8662,
    "longitude": -78.8454,
    "grid": "FN00nu",
    "locationDesc": "US-PA",
    "attempts": 27,
    "activations": 27,
    "qsos": 792
  },
  {
    "reference": "US-8873",
    "name": "PA 175 State Game Land",
    "latitude": 41.8889,
    "longitude": -75.7512,
    "grid": "FN21cv",
    "locationDesc": "US-PA",
    "attempts": 18,
    "activations": 18,
    "qsos": 599
  },
  {
    "reference": "US-8874",
    "name": "PA 176 State Game Land",
    "latitude": 40.7556,
    "longitude": -77.9726,
    "grid": "FN10as",
    "locationDesc": "US-PA",
    "attempts": 14,
    "activations": 13,
    "qsos": 450
  },
  {
    "reference": "US-8875",
    "name": "PA 178 State Game Land",
    "latitude": 41.0527,
    "longitude": -80.318,
    "grid": "EN91ub",
    "locationDesc": "US-PA",
    "attempts": 35,
    "activations": 34,
    "qsos": 1002
  },
  {
    "reference": "US-8876",
    "name": "PA 179 State Game Land",
    "latitude": 39.8469,
    "longitude": -80.3432,
    "grid": "EM99tu",
    "locationDesc": "US-PA",
    "attempts": 20,
    "activations": 20,
    "qsos": 1088
  },
  {
    "reference": "US-8877",
    "name": "PA 180 State Game Land",
    "latitude": 41.3967,
    "longitude": -75.0109,
    "grid": "FN21lj",
    "locationDesc": "US-PA",
    "attempts": 28,
    "activations": 28,
    "qsos": 1217
  },
  {
    "reference": "US-8878",
    "name": "PA 181 State Game Land",
    "latitude": 39.8405,
    "longitude": -76.3799,
    "grid": "FM19tu",
    "locationDesc": "US-PA",
    "attempts": 78,
    "activations": 77,
    "qsos": 1847
  },
  {
    "reference": "US-8879",
    "name": "PA 182 State Game Land",
    "latitude": 40.5299,
    "longitude": -75.8054,
    "grid": "FN20cm",
    "locationDesc": "US-PA",
    "attempts": 106,
    "activations": 99,
    "qsos": 2895
  },
  {
    "reference": "US-8880",
    "name": "PA 183 State Game Land",
    "latitude": 41.4362,
    "longitude": -75.1537,
    "grid": "FN21kk",
    "locationDesc": "US-PA",
    "attempts": 43,
    "activations": 43,
    "qsos": 1763
  },
  {
    "reference": "US-8881",
    "name": "PA 184 State Game Land",
    "latitude": 40.5804,
    "longitude": -78.5232,
    "grid": "FN00rn",
    "locationDesc": "US-PA",
    "attempts": 18,
    "activations": 18,
    "qsos": 772
  },
  {
    "reference": "US-8882",
    "name": "PA 185 State Game Land",
    "latitude": 40.6836,
    "longitude": -78.8628,
    "grid": "FN00nq",
    "locationDesc": "US-PA",
    "attempts": 12,
    "activations": 12,
    "qsos": 458
  },
  {
    "reference": "US-8883",
    "name": "PA 186 State Game Land",
    "latitude": 40.9784,
    "longitude": -75.3353,
    "grid": "FN20hx",
    "locationDesc": "US-PA",
    "attempts": 19,
    "activations": 18,
    "qsos": 800
  },
  {
    "reference": "US-8884",
    "name": "PA 187 State Game Land",
    "latitude": 41.0993,
    "longitude": -75.8663,
    "grid": "FN21bc",
    "locationDesc": "US-PA",
    "attempts": 20,
    "activations": 20,
    "qsos": 841
  },
  {
    "reference": "US-8885",
    "name": "PA 188 State Game Land",
    "latitude": 40.7958,
    "longitude": -77.1829,
    "grid": "FN10jt",
    "locationDesc": "US-PA",
    "attempts": 11,
    "activations": 11,
    "qsos": 544
  },
  {
    "reference": "US-8886",
    "name": "PA 189 State Game Land",
    "latitude": 40.5227,
    "longitude": -80.3579,
    "grid": "EN90tm",
    "locationDesc": "US-PA",
    "attempts": 48,
    "activations": 47,
    "qsos": 2158
  },
  {
    "reference": "US-8887",
    "name": "PA 190 State Game Land",
    "latitude": 41.9578,
    "longitude": -79.8915,
    "grid": "FN01bw",
    "locationDesc": "US-PA",
    "attempts": 24,
    "activations": 23,
    "qsos": 1426
  },
  {
    "reference": "US-8888",
    "name": "PA 191 State Game Land",
    "latitude": 42.0718,
    "longitude": -79.8084,
    "grid": "FN02cb",
    "locationDesc": "US-PA",
    "attempts": 30,
    "activations": 30,
    "qsos": 2042
  },
  {
    "reference": "US-8889",
    "name": "PA 192 State Game Land",
    "latitude": 41.9051,
    "longitude": -80.0456,
    "grid": "EN91xv",
    "locationDesc": "US-PA",
    "attempts": 27,
    "activations": 27,
    "qsos": 1182
  },
  {
    "reference": "US-8890",
    "name": "PA 193 State Game Land",
    "latitude": 40.9051,
    "longitude": -76.8892,
    "grid": "FN10nv",
    "locationDesc": "US-PA",
    "attempts": 20,
    "activations": 20,
    "qsos": 574
  },
  {
    "reference": "US-8891",
    "name": "PA 194 State Game Land",
    "latitude": 40.6613,
    "longitude": -76.9856,
    "grid": "FN10mp",
    "locationDesc": "US-PA",
    "attempts": 31,
    "activations": 31,
    "qsos": 1548
  },
  {
    "reference": "US-8892",
    "name": "PA 195 State Game Land",
    "latitude": 40.9602,
    "longitude": -78.8522,
    "grid": "FN00nx",
    "locationDesc": "US-PA",
    "attempts": 13,
    "activations": 13,
    "qsos": 1157
  },
  {
    "reference": "US-8893",
    "name": "PA 196 State Game Land",
    "latitude": 40.3737,
    "longitude": -75.3586,
    "grid": "FN20hi",
    "locationDesc": "US-PA",
    "attempts": 196,
    "activations": 189,
    "qsos": 4736
  },
  {
    "reference": "US-8894",
    "name": "PA 197 State Game Land",
    "latitude": 41.9701,
    "longitude": -79.5789,
    "grid": "FN01fx",
    "locationDesc": "US-PA",
    "attempts": 16,
    "activations": 16,
    "qsos": 683
  },
  {
    "reference": "US-8895",
    "name": "PA 198 State Game Land",
    "latitude": 40.4342,
    "longitude": -78.519,
    "grid": "FN00rk",
    "locationDesc": "US-PA",
    "attempts": 28,
    "activations": 28,
    "qsos": 696
  },
  {
    "reference": "US-8896",
    "name": "PA 199 State Game Land",
    "latitude": 41.7702,
    "longitude": -79.8204,
    "grid": "FN01cs",
    "locationDesc": "US-PA",
    "attempts": 13,
    "activations": 13,
    "qsos": 396
  },
  {
    "reference": "US-8897",
    "name": "PA 200 State Game Land",
    "latitude": 41.7076,
    "longitude": -79.9528,
    "grid": "FN01aq",
    "locationDesc": "US-PA",
    "attempts": 20,
    "activations": 20,
    "qsos": 583
  },
  {
    "reference": "US-8898",
    "name": "PA 201 State Game Land",
    "latitude": 40.8838,
    "longitude": -77.0539,
    "grid": "FN10lv",
    "locationDesc": "US-PA",
    "attempts": 13,
    "activations": 12,
    "qsos": 376
  },
  {
    "reference": "US-8899",
    "name": "PA 202 State Game Land",
    "latitude": 41.8459,
    "longitude": -79.8404,
    "grid": "FN01bu",
    "locationDesc": "US-PA",
    "attempts": 11,
    "activations": 11,
    "qsos": 374
  },
  {
    "reference": "US-8900",
    "name": "PA 203 State Game Land",
    "latitude": 40.6205,
    "longitude": -80.1172,
    "grid": "EN90wo",
    "locationDesc": "US-PA",
    "attempts": 255,
    "activations": 245,
    "qsos": 7896
  },
  {
    "reference": "US-8901",
    "name": "PA 204 State Game Land",
    "latitude": 41.8557,
    "longitude": -78.075,
    "grid": "FN01xu",
    "locationDesc": "US-PA",
    "attempts": 4,
    "activations": 4,
    "qsos": 147
  },
  {
    "reference": "US-8902",
    "name": "PA 205 State Game Land",
    "latitude": 40.6708,
    "longitude": -75.6604,
    "grid": "FN20eq",
    "locationDesc": "US-PA",
    "attempts": 107,
    "activations": 102,
    "qsos": 4315
  },
  {
    "reference": "US-8903",
    "name": "PA 206 State Game Land",
    "latitude": 41.3013,
    "longitude": -76.1986,
    "grid": "FN11vh",
    "locationDesc": "US-PA",
    "attempts": 25,
    "activations": 25,
    "qsos": 1387
  },
  {
    "reference": "US-8904",
    "name": "PA 207 State Game Land",
    "latitude": 41.1576,
    "longitude": -75.9441,
    "grid": "FN21ad",
    "locationDesc": "US-PA",
    "attempts": 22,
    "activations": 22,
    "qsos": 1544
  },
  {
    "reference": "US-8905",
    "name": "PA 208 State Game Land",
    "latitude": 41.776,
    "longitude": -77.5632,
    "grid": "FN11fs",
    "locationDesc": "US-PA",
    "attempts": 26,
    "activations": 24,
    "qsos": 670
  },
  {
    "reference": "US-8906",
    "name": "PA 209 State Game Land",
    "latitude": 41.4298,
    "longitude": -74.8247,
    "grid": "FN21ok",
    "locationDesc": "US-PA",
    "attempts": 10,
    "activations": 10,
    "qsos": 314
  },
  {
    "reference": "US-8907",
    "name": "PA 210 State Game Land",
    "latitude": 40.5309,
    "longitude": -76.6938,
    "grid": "FN10pm",
    "locationDesc": "US-PA",
    "attempts": 17,
    "activations": 14,
    "qsos": 354
  },
  {
    "reference": "US-8908",
    "name": "PA 211 State Game Land",
    "latitude": 40.5236,
    "longitude": -76.5253,
    "grid": "FN10rm",
    "locationDesc": "US-PA",
    "attempts": 121,
    "activations": 120,
    "qsos": 5473
  },
  {
    "reference": "US-8909",
    "name": "PA 212 State Game Land",
    "latitude": 40.7592,
    "longitude": -76.8753,
    "grid": "FN10ns",
    "locationDesc": "US-PA",
    "attempts": 36,
    "activations": 36,
    "qsos": 1503
  },
  {
    "reference": "US-8910",
    "name": "PA 213 State Game Land",
    "latitude": 41.55,
    "longitude": -80.1854,
    "grid": "EN91vn",
    "locationDesc": "US-PA",
    "attempts": 28,
    "activations": 28,
    "qsos": 1247
  },
  {
    "reference": "US-8911",
    "name": "PA 214 State Game Land",
    "latitude": 41.605,
    "longitude": -80.3792,
    "grid": "EN91to",
    "locationDesc": "US-PA",
    "attempts": 61,
    "activations": 59,
    "qsos": 2283
  },
  {
    "reference": "US-8912",
    "name": "PA 215 State Game Land",
    "latitude": 40.4038,
    "longitude": -77.6292,
    "grid": "FN10ej",
    "locationDesc": "US-PA",
    "attempts": 6,
    "activations": 6,
    "qsos": 347
  },
  {
    "reference": "US-8913",
    "name": "PA 216 State Game Land",
    "latitude": 41.011,
    "longitude": -80.1965,
    "grid": "EN91va",
    "locationDesc": "US-PA",
    "attempts": 54,
    "activations": 54,
    "qsos": 1777
  },
  {
    "reference": "US-8914",
    "name": "PA 217 State Game Land",
    "latitude": 40.7689,
    "longitude": -75.6412,
    "grid": "FN20es",
    "locationDesc": "US-PA",
    "attempts": 162,
    "activations": 159,
    "qsos": 8173
  },
  {
    "reference": "US-8915",
    "name": "PA 218 State Game Land",
    "latitude": 42.0582,
    "longitude": -79.9158,
    "grid": "FN02bb",
    "locationDesc": "US-PA",
    "attempts": 29,
    "activations": 29,
    "qsos": 1633
  },
  {
    "reference": "US-8916",
    "name": "PA 219 State Game Land",
    "latitude": 41.9417,
    "longitude": -76.2054,
    "grid": "FN11vw",
    "locationDesc": "US-PA",
    "attempts": 14,
    "activations": 14,
    "qsos": 481
  },
  {
    "reference": "US-8917",
    "name": "PA 220 State Game Land",
    "latitude": 40.2787,
    "longitude": -76.1213,
    "grid": "FN10wg",
    "locationDesc": "US-PA",
    "attempts": 72,
    "activations": 72,
    "qsos": 1838
  },
  {
    "reference": "US-8918",
    "name": "PA 221 State Game Land",
    "latitude": 41.1545,
    "longitude": -75.2888,
    "grid": "FN21id",
    "locationDesc": "US-PA",
    "attempts": 26,
    "activations": 26,
    "qsos": 807
  },
  {
    "reference": "US-8919",
    "name": "PA 222 State Game Land",
    "latitude": 40.7198,
    "longitude": -76.0293,
    "grid": "FN10xr",
    "locationDesc": "US-PA",
    "attempts": 58,
    "activations": 58,
    "qsos": 3192
  },
  {
    "reference": "US-8920",
    "name": "PA 223 State Game Land",
    "latitude": 39.8086,
    "longitude": -80.0969,
    "grid": "EM99wt",
    "locationDesc": "US-PA",
    "attempts": 55,
    "activations": 55,
    "qsos": 2707
  },
  {
    "reference": "US-8921",
    "name": "PA 224 State Game Land",
    "latitude": 41.247,
    "longitude": -75.9802,
    "grid": "FN21af",
    "locationDesc": "US-PA",
    "attempts": 20,
    "activations": 19,
    "qsos": 1107
  },
  {
    "reference": "US-8922",
    "name": "PA 225 State Game Land",
    "latitude": 40.3157,
    "longitude": -76.1978,
    "grid": "FN10vh",
    "locationDesc": "US-PA",
    "attempts": 50,
    "activations": 46,
    "qsos": 1084
  },
  {
    "reference": "US-8923",
    "name": "PA 226 State Game Land",
    "latitude": 41.1156,
    "longitude": -76.5598,
    "grid": "FN11rc",
    "locationDesc": "US-PA",
    "attempts": 10,
    "activations": 9,
    "qsos": 307
  },
  {
    "reference": "US-8924",
    "name": "PA 227 State Game Land",
    "latitude": 40.8105,
    "longitude": -75.9909,
    "grid": "FN20at",
    "locationDesc": "US-PA",
    "attempts": 65,
    "activations": 65,
    "qsos": 3833
  },
  {
    "reference": "US-8925",
    "name": "PA 228 State Game Land",
    "latitude": 40.0973,
    "longitude": -78.7641,
    "grid": "FN00oc",
    "locationDesc": "US-PA",
    "attempts": 15,
    "activations": 15,
    "qsos": 507
  },
  {
    "reference": "US-8926",
    "name": "PA 229 State Game Land",
    "latitude": 40.5844,
    "longitude": -76.4331,
    "grid": "FN10so",
    "locationDesc": "US-PA",
    "attempts": 25,
    "activations": 25,
    "qsos": 1450
  },
  {
    "reference": "US-8927",
    "name": "PA 230 State Game Land",
    "latitude": 40.2723,
    "longitude": -77.1782,
    "grid": "FN10jg",
    "locationDesc": "US-PA",
    "attempts": 45,
    "activations": 44,
    "qsos": 1366
  },
  {
    "reference": "US-8928",
    "name": "PA 231 State Game Land",
    "latitude": 39.7741,
    "longitude": -79.0211,
    "grid": "FM09ls",
    "locationDesc": "US-PA",
    "attempts": 17,
    "activations": 17,
    "qsos": 388
  },
  {
    "reference": "US-8929",
    "name": "PA 232 State Game Land",
    "latitude": 40.1955,
    "longitude": -80.3898,
    "grid": "EN90te",
    "locationDesc": "US-PA",
    "attempts": 54,
    "activations": 52,
    "qsos": 3152
  },
  {
    "reference": "US-8930",
    "name": "PA 233 State Game Land",
    "latitude": 40.7503,
    "longitude": -76.8582,
    "grid": "FN10ns",
    "locationDesc": "US-PA",
    "attempts": 28,
    "activations": 28,
    "qsos": 725
  },
  {
    "reference": "US-8931",
    "name": "PA 234 State Game Land",
    "latitude": 40.2544,
    "longitude": -75.5119,
    "grid": "FN20fg",
    "locationDesc": "US-PA",
    "attempts": 104,
    "activations": 100,
    "qsos": 3433
  },
  {
    "reference": "US-8932",
    "name": "PA 235 State Game Land",
    "latitude": 39.9893,
    "longitude": -77.8501,
    "grid": "FM19bx",
    "locationDesc": "US-PA",
    "attempts": 10,
    "activations": 10,
    "qsos": 260
  },
  {
    "reference": "US-8933",
    "name": "PA 236 State Game Land",
    "latitude": 41.761,
    "longitude": -75.5111,
    "grid": "FN21fs",
    "locationDesc": "US-PA",
    "attempts": 28,
    "activations": 28,
    "qsos": 1900
  },
  {
    "reference": "US-8934",
    "name": "PA 237 State Game Land",
    "latitude": 41.6681,
    "longitude": -76.2788,
    "grid": "FN11uq",
    "locationDesc": "US-PA",
    "attempts": 8,
    "activations": 8,
    "qsos": 259
  },
  {
    "reference": "US-8935",
    "name": "PA 238 State Game Land",
    "latitude": 39.8771,
    "longitude": -79.8957,
    "grid": "FM09bv",
    "locationDesc": "US-PA",
    "attempts": 11,
    "activations": 11,
    "qsos": 659
  },
  {
    "reference": "US-8936",
    "name": "PA 239 State Game Land",
    "latitude": 41.9166,
    "longitude": -76.6015,
    "grid": "FN11qv",
    "locationDesc": "US-PA",
    "attempts": 13,
    "activations": 13,
    "qsos": 406
  },
  {
    "reference": "US-8937",
    "name": "PA 242 State Game Land",
    "latitude": 40.0895,
    "longitude": -76.9488,
    "grid": "FN10mc",
    "locationDesc": "US-PA",
    "attempts": 147,
    "activations": 147,
    "qsos": 3242
  },
  {
    "reference": "US-8938",
    "name": "PA 243 State Game Land",
    "latitude": 40.0712,
    "longitude": -77.05,
    "grid": "FN10lb",
    "locationDesc": "US-PA",
    "attempts": 109,
    "activations": 108,
    "qsos": 2997
  },
  {
    "reference": "US-8939",
    "name": "PA 244 State Game Land",
    "latitude": 41.1122,
    "longitude": -78.9665,
    "grid": "FN01mc",
    "locationDesc": "US-PA",
    "attempts": 17,
    "activations": 17,
    "qsos": 1424
  },
  {
    "reference": "US-8940",
    "name": "PA 245 State Game Land",
    "latitude": 40.0942,
    "longitude": -80.4274,
    "grid": "EN90sc",
    "locationDesc": "US-PA",
    "attempts": 56,
    "activations": 52,
    "qsos": 1962
  },
  {
    "reference": "US-8941",
    "name": "PA 246 State Game Land",
    "latitude": 40.2119,
    "longitude": -76.6826,
    "grid": "FN10pf",
    "locationDesc": "US-PA",
    "attempts": 170,
    "activations": 161,
    "qsos": 4571
  },
  {
    "reference": "US-8942",
    "name": "PA 247 State Game Land",
    "latitude": 40.7777,
    "longitude": -79.574,
    "grid": "FN00fs",
    "locationDesc": "US-PA",
    "attempts": 79,
    "activations": 74,
    "qsos": 2709
  },
  {
    "reference": "US-8943",
    "name": "PA 248 State Game Land",
    "latitude": 40.6101,
    "longitude": -79.0718,
    "grid": "FN00lo",
    "locationDesc": "US-PA",
    "attempts": 18,
    "activations": 18,
    "qsos": 561
  },
  {
    "reference": "US-8944",
    "name": "PA 249 State Game Land",
    "latitude": 39.9593,
    "longitude": -77.119,
    "grid": "FM19kx",
    "locationDesc": "US-PA",
    "attempts": 127,
    "activations": 122,
    "qsos": 2547
  },
  {
    "reference": "US-8945",
    "name": "PA 250 State Game Land",
    "latitude": 41.6442,
    "longitude": -76.3422,
    "grid": "FN11tp",
    "locationDesc": "US-PA",
    "attempts": 11,
    "activations": 10,
    "qsos": 413
  },
  {
    "reference": "US-8946",
    "name": "PA 251 State Game Land",
    "latitude": 40.2261,
    "longitude": -77.8155,
    "grid": "FN10cf",
    "locationDesc": "US-PA",
    "attempts": 6,
    "activations": 6,
    "qsos": 172
  },
  {
    "reference": "US-8947",
    "name": "PA 252 State Game Land",
    "latitude": 41.1699,
    "longitude": -76.9505,
    "grid": "FN11me",
    "locationDesc": "US-PA",
    "attempts": 14,
    "activations": 14,
    "qsos": 408
  },
  {
    "reference": "US-8948",
    "name": "PA 253 State Game Land",
    "latitude": 41.4768,
    "longitude": -79.6212,
    "grid": "FN01el",
    "locationDesc": "US-PA",
    "attempts": 8,
    "activations": 8,
    "qsos": 195
  },
  {
    "reference": "US-8949",
    "name": "PA 254 State Game Land",
    "latitude": 40.4655,
    "longitude": -76.9515,
    "grid": "FN10ml",
    "locationDesc": "US-PA",
    "attempts": 25,
    "activations": 25,
    "qsos": 794
  },
  {
    "reference": "US-8950",
    "name": "PA 255 State Game Land",
    "latitude": 41.077,
    "longitude": -77.5501,
    "grid": "FN11fb",
    "locationDesc": "US-PA",
    "attempts": 8,
    "activations": 8,
    "qsos": 342
  },
  {
    "reference": "US-8951",
    "name": "PA 256 State Game Land",
    "latitude": 40.3943,
    "longitude": -77.1284,
    "grid": "FN10kj",
    "locationDesc": "US-PA",
    "attempts": 13,
    "activations": 13,
    "qsos": 327
  },
  {
    "reference": "US-8952",
    "name": "PA 257 State Game Land",
    "latitude": 40.7677,
    "longitude": -75.9377,
    "grid": "FN20as",
    "locationDesc": "US-PA",
    "attempts": 74,
    "activations": 74,
    "qsos": 4015
  },
  {
    "reference": "US-8953",
    "name": "PA 258 State Game Land",
    "latitude": 40.6128,
    "longitude": -76.9534,
    "grid": "FN10mo",
    "locationDesc": "US-PA",
    "attempts": 25,
    "activations": 25,
    "qsos": 937
  },
  {
    "reference": "US-8954",
    "name": "PA 259 State Game Land",
    "latitude": 40.8988,
    "longitude": -79.6323,
    "grid": "FN00ev",
    "locationDesc": "US-PA",
    "attempts": 33,
    "activations": 33,
    "qsos": 1239
  },
  {
    "reference": "US-8955",
    "name": "PA 260 State Game Land",
    "latitude": 41.1314,
    "longitude": -76.145,
    "grid": "FN11wd",
    "locationDesc": "US-PA",
    "attempts": 13,
    "activations": 13,
    "qsos": 757
  },
  {
    "reference": "US-8956",
    "name": "PA 261 State Game Land",
    "latitude": 40.1233,
    "longitude": -78.2396,
    "grid": "FN00vc",
    "locationDesc": "US-PA",
    "attempts": 10,
    "activations": 10,
    "qsos": 499
  },
  {
    "reference": "US-8957",
    "name": "PA 262 State Game Land",
    "latitude": 40.8208,
    "longitude": -78.8977,
    "grid": "FN00nt",
    "locationDesc": "US-PA",
    "attempts": 12,
    "activations": 12,
    "qsos": 549
  },
  {
    "reference": "US-8958",
    "name": "PA 263 State Game Land",
    "latitude": 41.9577,
    "longitude": -79.6117,
    "grid": "FN01ew",
    "locationDesc": "US-PA",
    "attempts": 29,
    "activations": 28,
    "qsos": 1403
  },
  {
    "reference": "US-8959",
    "name": "PA 264 State Game Land",
    "latitude": 40.5858,
    "longitude": -76.6135,
    "grid": "FN10qo",
    "locationDesc": "US-PA",
    "attempts": 19,
    "activations": 19,
    "qsos": 1027
  },
  {
    "reference": "US-8960",
    "name": "PA 265 State Game Land",
    "latitude": 39.7761,
    "longitude": -79.4952,
    "grid": "FM09gs",
    "locationDesc": "US-PA",
    "attempts": 23,
    "activations": 23,
    "qsos": 701
  },