[
  {
    "reference": "US-0015",
    "name": "Chesapeake and Ohio Canal National Historical Park",
    "latitude": 39.6007,
    "longitude": -77.8265,
    "grid": "FM19co",
    "locationDesc": "US-DC,US-MD,US-WV",
    "attempts": 617,
    "activations": 605,
    "qsos": 18371
  },
  {
    "reference": "US-0331",
    "name": "Blackwater National Wildlife Refuge",
    "latitude": 38.4454,
    "longitude": -76.1194,
    "grid": "FM18wk",
    "locationDesc": "US-MD",
    "attempts": 79,
    "activations": 76,
    "qsos": 2755
  },
  {
    "reference": "US-0332",
    "name": "Eastern Neck National Wildlife Refuge",
    "latitude": 39.0311,
    "longitude": -76.2248,
    "grid": "FM19va",
    "locationDesc": "US-MD",
    "attempts": 26,
    "activations": 25,
    "qsos": 1160
  },
  {
    "reference": "US-0333",
    "name": "Martin National Wildlife Refuge",
    "latitude": 37.9958,
    "longitude": -76.0344,
    "grid": "FM17xx",
    "locationDesc": "US-MD",
    "attempts": 6,
    "activations": 6,
    "qsos": 383
  },
  {
    "reference": "US-0334",
    "name": "Patuxent National Wildlife Refuge",
    "latitude": 39.0545,
    "longitude": -76.8168,
    "grid": "FM19ob",
    "locationDesc": "US-MD",
    "attempts": 387,
    "activations": 375,
    "qsos": 10858
  },
  {
    "reference": "US-0335",
    "name": "Susquehanna National Wildlife Refuge",
    "latitude": 39.4952,
    "longitude": -76.0837,
    "grid": "FM19wl",
    "locationDesc": "US-MD",
    "attempts": 7,
    "activations": 6,
    "qsos": 214
  },
  {
    "reference": "US-0654",
    "name": "National Capital Parks Park",
    "latitude": 38.8746,
    "longitude": -76.9795,
    "grid": "FM18mu",
    "locationDesc": "US-DC,US-MD",
    "attempts": 2039,
    "activations": 2024,
    "qsos": 69710
  },
  {
    "reference": "US-0666",
    "name": "Catoctin Mountain Park",
    "latitude": 39.634,
    "longitude": -77.45,
    "grid": "FM19gp",
    "locationDesc": "US-MD",
    "attempts": 289,
    "activations": 276,
    "qsos": 7175
  },
  {
    "reference": "US-0667",
    "name": "Fort Washington Park",
    "latitude": 38.7126,
    "longitude": -77.0331,
    "grid": "FM18lr",
    "locationDesc": "US-MD",
    "attempts": 109,
    "activations": 106,
    "qsos": 3369
  },
  {
    "reference": "US-0668",
    "name": "Greenbelt Park",
    "latitude": 38.9944,
    "longitude": -76.895,
    "grid": "FM18nx",
    "locationDesc": "US-MD",
    "attempts": 1594,
    "activations": 1578,
    "qsos": 50942
  },
  {
    "reference": "US-0669",
    "name": "Piscataway Park",
    "latitude": 38.7035,
    "longitude": -77.0096,
    "grid": "FM18lq",
    "locationDesc": "US-MD",
    "attempts": 61,
    "activations": 60,
    "qsos": 1918
  },
  {
    "reference": "US-0670",
    "name": "George Washington Memorial Parkway",
    "latitude": 38.9618,
    "longitude": -77.1478,
    "grid": "FM18kx",
    "locationDesc": "US-DC,US-MD,US-VA",
    "attempts": 2056,
    "activations": 2012,
    "qsos": 95133
  },
  {
    "reference": "US-0671",
    "name": "Assateague Island National Seashore",
    "latitude": 38.208,
    "longitude": -75.1624,
    "grid": "FM28ke",
    "locationDesc": "US-MD,US-VA",
    "attempts": 279,
    "activations": 261,
    "qsos": 10931
  },
  {
    "reference": "US-0700",
    "name": "Antietam National Battlefield",
    "latitude": 39.4739,
    "longitude": -77.7449,
    "grid": "FM19dl",
    "locationDesc": "US-MD",
    "attempts": 235,
    "activations": 229,
    "qsos": 7129
  },
  {
    "reference": "US-0705",
    "name": "Monocacy National Battlefield",
    "latitude": 39.3772,
    "longitude": -77.3956,
    "grid": "FM19hj",
    "locationDesc": "US-MD",
    "attempts": 406,
    "activations": 392,
    "qsos": 9864
  },
  {
    "reference": "US-0735",
    "name": "Harpers Ferry National Historical Park",
    "latitude": 39.323,
    "longitude": -77.7298,
    "grid": "FM19dh",
    "locationDesc": "US-MD,US-VA,US-WV",
    "attempts": 424,
    "activations": 407,
    "qsos": 11072
  },
  {
    "reference": "US-0736",
    "name": "Harriet Tubman Underground Railroad National Historical Park",
    "latitude": 38.4497,
    "longitude": -76.1378,
    "grid": "FM18wk",
    "locationDesc": "US-MD",
    "attempts": 72,
    "activations": 66,
    "qsos": 2751
  },
  {
    "reference": "US-0808",
    "name": "Clara Barton National Historic Site",
    "latitude": 38.967,
    "longitude": -77.1407,
    "grid": "FM18kx",
    "locationDesc": "US-MD",
    "attempts": 160,
    "activations": 154,
    "qsos": 7898
  },
  {
    "reference": "US-0830",
    "name": "Hampton National Historic Site",
    "latitude": 39.4172,
    "longitude": -76.5868,
    "grid": "FM19qk",
    "locationDesc": "US-MD",
    "attempts": 275,
    "activations": 271,
    "qsos": 11269
  },
  {
    "reference": "US-0867",
    "name": "Thomas Stone National Historic Site",
    "latitude": 38.5302,
    "longitude": -77.0358,
    "grid": "FM18lm",
    "locationDesc": "US-MD",
    "attempts": 49,
    "activations": 46,
    "qsos": 1368
  },
  {
    "reference": "US-0928",
    "name": "Fort McHenry National Monument",
    "latitude": 39.2633,
    "longitude": -76.5799,
    "grid": "FM19rg",
    "locationDesc": "US-MD",
    "attempts": 840,
    "activations": 821,
    "qsos": 30100
  },
  {
    "reference": "US-1559",
    "name": "Assateague State Park",
    "latitude": 38.2365,
    "longitude": -75.138,
    "grid": "FM28kf",
    "locationDesc": "US-MD",
    "attempts": 167,
    "activations": 162,
    "qsos": 7234
  },
  {
    "reference": "US-1560",
    "name": "Big Run State Park",
    "latitude": 39.5454,
    "longitude": -79.1331,
    "grid": "FM09kn",
    "locationDesc": "US-MD",
    "attempts": 32,
    "activations": 30,
    "qsos": 1051
  },
  {
    "reference": "US-1561",
    "name": "Bill Burton Fishing Pier State Park",
    "latitude": 38.5916,
    "longitude": -76.0468,
    "grid": "FM18xo",
    "locationDesc": "US-MD",
    "attempts": 106,
    "activations": 96,
    "qsos": 2810
  },
  {
    "reference": "US-1562",
    "name": "Calvert Cliffs State Park",
    "latitude": 38.3967,
    "longitude": -76.4354,
    "grid": "FM18sj",
    "locationDesc": "US-MD",
    "attempts": 205,
    "activations": 201,
    "qsos": 6864
  },
  {
    "reference": "US-1563",
    "name": "Casselman River Bridge State Park",
    "latitude": 39.6962,
    "longitude": -79.1437,
    "grid": "FM09kq",
    "locationDesc": "US-MD",
    "attempts": 71,
    "activations": 66,
    "qsos": 1375
  },
  {
    "reference": "US-1564",
    "name": "Chapel Point State Park",
    "latitude": 38.4732,
    "longitude": -77.0121,
    "grid": "FM18ll",
    "locationDesc": "US-MD",
    "attempts": 49,
    "activations": 44,
    "qsos": 1278
  },
  {
    "reference": "US-1565",
    "name": "Chapman State Park",
    "latitude": 38.6151,
    "longitude": -77.116,
    "grid": "FM18ko",
    "locationDesc": "US-MD",
    "attempts": 41,
    "activations": 39,
    "qsos": 1033
  },
  {
    "reference": "US-1566",
    "name": "Cunningham Falls State Park",
    "latitude": 39.6262,
    "longitude": -77.4633,
    "grid": "FM19gp",
    "locationDesc": "US-MD",
    "attempts": 318,
    "activations": 305,
    "qsos": 8005
  },
  {
    "reference": "US-1567",
    "name": "Dans Mountain State Park",
    "latitude": 39.5577,
    "longitude": -78.9478,
    "grid": "FM09mn",
    "locationDesc": "US-MD",
    "attempts": 40,
    "activations": 40,
    "qsos": 1997
  },
  {
    "reference": "US-1568",
    "name": "Deep Creek Lake State Park",
    "latitude": 39.5122,
    "longitude": -79.3013,
    "grid": "FM09im",
    "locationDesc": "US-MD",
    "attempts": 102,
    "activations": 96,
    "qsos": 3040
  },
  {
    "reference": "US-1569",
    "name": "Elk Neck State Park",
    "latitude": 39.4795,
    "longitude": -75.9809,
    "grid": "FM29al",
    "locationDesc": "US-MD",
    "attempts": 137,
    "activations": 123,
    "qsos": 4844
  },
  {
    "reference": "US-1570",
    "name": "Fort Frederick State Park",
    "latitude": 39.6135,
    "longitude": -78.0062,
    "grid": "FM09xo",
    "locationDesc": "US-MD",
    "attempts": 111,
    "activations": 111,
    "qsos": 3353
  },
  {
    "reference": "US-1572",
    "name": "Franklin Point State Park",
    "latitude": 38.8139,
    "longitude": -76.5122,
    "grid": "FM18rt",
    "locationDesc": "US-MD",
    "attempts": 208,
    "activations": 205,
    "qsos": 7129
  },
  {
    "reference": "US-1573",
    "name": "Gambrill State Park",
    "latitude": 39.4647,
    "longitude": -77.4956,
    "grid": "FM19gl",
    "locationDesc": "US-MD",
    "attempts": 490,
    "activations": 477,
    "qsos": 11700
  },
  {
    "reference": "US-1574",
    "name": "Gathland State Park",
    "latitude": 39.4053,
    "longitude": -77.6401,
    "grid": "FM19ej",
    "locationDesc": "US-MD",
    "attempts": 723,
    "activations": 717,
    "qsos": 19439
  },
  {
    "reference": "US-1575",
    "name": "Greenbrier State Park",
    "latitude": 39.5416,
    "longitude": -77.6085,
    "grid": "FM19em",
    "locationDesc": "US-MD",
    "attempts": 404,
    "activations": 333,
    "qsos": 10579
  },
  {
    "reference": "US-1576",
    "name": "Greenwell State Park",
    "latitude": 38.3692,
    "longitude": -76.5213,
    "grid": "FM18ri",
    "locationDesc": "US-MD",
    "attempts": 128,
    "activations": 123,
    "qsos": 4608
  },
  {
    "reference": "US-1577",
    "name": "Gunpowder Falls State Park",
    "latitude": 39.3599,
    "longitude": -76.3493,
    "grid": "FM19ti",
    "locationDesc": "US-MD",
    "attempts": 449,
    "activations": 421,
    "qsos": 13555
  },
  {
    "reference": "US-1578",
    "name": "Hart-Miller Island State Park",
    "latitude": 39.2511,
    "longitude": -76.3666,
    "grid": "FM19tg",
    "locationDesc": "US-MD",
    "attempts": 7,
    "activations": 7,
    "qsos": 228
  },
  {
    "reference": "US-1579",
    "name": "Herrington Manor State Park",
    "latitude": 39.4538,
    "longitude": -79.4482,
    "grid": "FM09gk",
    "locationDesc": "US-MD",
    "attempts": 119,
    "activations": 118,
    "qsos": 3924
  },
  {
    "reference": "US-1580",
    "name": "Janes Island State Park",
    "latitude": 38.0087,
    "longitude": -75.8479,
    "grid": "FM28ba",
    "locationDesc": "US-MD",
    "attempts": 111,
    "activations": 101,
    "qsos": 5402
  },
  {
    "reference": "US-1581",
    "name": "Jonas Green State Park",
    "latitude": 38.9963,
    "longitude": -76.4841,
    "grid": "FM18sx",
    "locationDesc": "US-MD",
    "attempts": 273,
    "activations": 268,
    "qsos": 9647
  },
  {
    "reference": "US-1582",
    "name": "Martinak State Park",
    "latitude": 38.8638,
    "longitude": -75.8391,
    "grid": "FM28bu",
    "locationDesc": "US-MD",
    "attempts": 104,
    "activations": 102,
    "qsos": 5255
  },
  {
    "reference": "US-1583",
    "name": "Matthew Henson State Park",
    "latitude": 39.0694,
    "longitude": -77.0806,
    "grid": "FM19lb",
    "locationDesc": "US-MD",
    "attempts": 114,
    "activations": 108,
    "qsos": 5270
  },
  {
    "reference": "US-1584",
    "name": "New Germany State Park",
    "latitude": 39.6299,
    "longitude": -79.134,
    "grid": "FM09kp",
    "locationDesc": "US-MD",
    "attempts": 44,
    "activations": 42,
    "qsos": 1256
  },
  {
    "reference": "US-1585",
    "name": "Newtowne Neck State Park",
    "latitude": 38.2489,
    "longitude": -76.7052,
    "grid": "FM18pf",
    "locationDesc": "US-MD",
    "attempts": 115,
    "activations": 114,
    "qsos": 4151
  },
  {
    "reference": "US-1586",
    "name": "North Point State Park",
    "latitude": 39.2205,
    "longitude": -76.4305,
    "grid": "FM19sf",
    "locationDesc": "US-MD",
    "attempts": 341,
    "activations": 335,
    "qsos": 12836
  },
  {
    "reference": "US-1587",
    "name": "Palmer State Park",
    "latitude": 39.6217,
    "longitude": -76.2783,
    "grid": "FM19uo",
    "locationDesc": "US-MD",
    "attempts": 117,
    "activations": 110,
    "qsos": 2885
  },
  {
    "reference": "US-1588",
    "name": "Patapsco Valley State Park",
    "latitude": 39.2948,
    "longitude": -76.7853,
    "grid": "FM19oh",
    "locationDesc": "US-MD",
    "attempts": 1072,
    "activations": 1031,
    "qsos": 29859
  },
  {
    "reference": "US-1589",
    "name": "Patuxent River State Park",
    "latitude": 39.2756,
    "longitude": -77.1361,
    "grid": "FM19kg",
    "locationDesc": "US-MD",
    "attempts": 371,
    "activations": 366,
    "qsos": 10608
  },
  {
    "reference": "US-1590",
    "name": "Point Lookout State Park",
    "latitude": 38.062,
    "longitude": -76.3336,
    "grid": "FM18tb",
    "locationDesc": "US-MD",
    "attempts": 68,
    "activations": 61,
    "qsos": 2277
  },
  {
    "reference": "US-1591",
    "name": "Nanjemoy Wildlife Management Area",
    "latitude": 38.4314,
    "longitude": -77.2494,
    "grid": "FM18jk",
    "locationDesc": "US-MD",
    "attempts": 26,
    "activations": 25,
    "qsos": 628
  },
  {
    "reference": "US-1592",
    "name": "Rocks State Park",
    "latitude": 39.6354,
    "longitude": -76.4177,
    "grid": "FM19sp",
    "locationDesc": "US-MD",
    "attempts": 160,
    "activations": 154,
    "qsos": 6082
  },
  {
    "reference": "US-1593",
    "name": "Rocky Gap State Park",
    "latitude": 39.6959,
    "longitude": -78.6496,
    "grid": "FM09qq",
    "locationDesc": "US-MD",
    "attempts": 140,
    "activations": 136,
    "qsos": 5409
  },
  {
    "reference": "US-1594",
    "name": "Rosaryville State Park",
    "latitude": 38.7759,
    "longitude": -76.819,
    "grid": "FM18os",
    "locationDesc": "US-MD",
    "attempts": 117,
    "activations": 116,
    "qsos": 4120
  },
  {
    "reference": "US-1595",
    "name": "Sandy Point State Park",
    "latitude": 39.0209,
    "longitude": -76.4071,
    "grid": "FM19ta",
    "locationDesc": "US-MD",
    "attempts": 249,
    "activations": 241,
    "qsos": 9521
  },
  {
    "reference": "US-1596",
    "name": "Seneca Creek State Park",
    "latitude": 39.1507,
    "longitude": -77.2496,
    "grid": "FM19jd",
    "locationDesc": "US-MD",
    "attempts": 181,
    "activations": 175,
    "qsos": 5492
  },
  {
    "reference": "US-1597",
    "name": "Smallwood State Park",
    "latitude": 38.5532,
    "longitude": -77.1837,
    "grid": "FM18jn",
    "locationDesc": "US-MD",
    "attempts": 58,
    "activations": 58,
    "qsos": 2175
  },
  {
    "reference": "US-1598",
    "name": "South Mountain State Park",
    "latitude": 39.5539,
    "longitude": -77.5992,
    "grid": "FM19en",
    "locationDesc": "US-MD",
    "attempts": 350,
    "activations": 342,
    "qsos": 9294
  },
  {
    "reference": "US-1599",
    "name": "St. Clements Island State Park",
    "latitude": 38.2106,
    "longitude": -76.7445,
    "grid": "FM18pf",
    "locationDesc": "US-MD",
    "attempts": 15,
    "activations": 15,
    "qsos": 759
  },
  {
    "reference": "US-1600",
    "name": "St. Mary's River State Park",
    "latitude": 38.2729,
    "longitude": -76.506,
    "grid": "FM18rg",
    "locationDesc": "US-MD",
    "attempts": 122,
    "activations": 119,
    "qsos": 4437
  },
  {
    "reference": "US-1601",
    "name": "Susquehanna State Park",
    "latitude": 39.6062,
    "longitude": -76.1607,
    "grid": "FM19wo",
    "locationDesc": "US-MD",
    "attempts": 209,
    "activations": 195,
    "qsos": 5647
  },
  {
    "reference": "US-1602",
    "name": "Swallow Falls State Park",
    "latitude": 39.4991,
    "longitude": -79.4187,
    "grid": "FM09gl",
    "locationDesc": "US-MD",
    "attempts": 99,
    "activations": 97,
    "qsos": 2861
  },
  {
    "reference": "US-1603",
    "name": "Tuckahoe State Park",
    "latitude": 38.9688,
    "longitude": -75.9452,
    "grid": "FM28ax",
    "locationDesc": "US-MD",
    "attempts": 132,
    "activations": 124,
    "qsos": 4131
  },
  {
    "reference": "US-1604",
    "name": "Washington Monument State Park",
    "latitude": 39.4991,
    "longitude": -77.6239,
    "grid": "FM19el",
    "locationDesc": "US-MD",
    "attempts": 421,
    "activations": 413,
    "qsos": 16709
  },
  {
    "reference": "US-1606",
    "name": "Wye Oak State Park",
    "latitude": 38.9391,
    "longitude": -76.0812,
    "grid": "FM18xw",
    "locationDesc": "US-MD",
    "attempts": 50,
    "activations": 48,
    "qsos": 1138
  },
  {
    "reference": "US-4365",
    "name": "North Point Battlefield State Park",
    "latitude": 39.2789,
    "longitude": -76.4877,
    "grid": "FM19sg",
    "locationDesc": "US-MD",
    "attempts": 365,
    "activations": 360,
    "qsos": 13049
  },
  {
    "reference": "US-4556",
    "name": "Appalachian Trail National Scenic Trail",
    "latitude": 34.6267,
    "longitude": -84.1937,
    "grid": "EM74vp",
    "locationDesc": "US-CT,US-GA,US-MA,US-MD,US-ME,US-NC,US-NH,US-NJ,US-NY,US-PA,US-TN,US-VA,US-VT,US-WV",
    "attempts": 5706,
    "activations": 5473,
    "qsos": 200848
  },
  {
    "reference": "US-4564",
    "name": "Potomac Heritage Trail National Scenic Trail",
    "latitude": 38.6148,
    "longitude": -77.2748,
    "grid": "FM18io",
    "locationDesc": "US-DC,US-MD,US-PA,US-VA",
    "attempts": 3034,
    "activations": 2988,
    "qsos": 125691
  },
  {
    "reference": "US-4567",
    "name": "Captain John Smith Chesapeake National Historic Trail",
    "latitude": 38.9049,
    "longitude": -77.0681,
    "grid": "FM18lv",
    "locationDesc": "US-DC,US-DE,US-MD,US-NY,US-PA,US-VA",
    "attempts": 6463,
    "activations": 6361,
    "qsos": 271243
  },
  {
    "reference": "US-4581",
    "name": "Star-Spangled Banner National Historic Trail",
    "latitude": 39.2652,
    "longitude": -76.5836,
    "grid": "FM19qg",
    "locationDesc": "US-DC,US-MD,US-VA",
    "attempts": 5312,
    "activations": 5267,
    "qsos": 236934
  },
  {
    "reference": "US-4582",
    "name": "Washington-Rochambeau Revolutionary Route National Historic Trail",
    "latitude": 41.312,
    "longitude": -73.9709,
    "grid": "FN31ah",
    "locationDesc": "US-CT,US-DC,US-DE,US-MA,US-MD,US-NJ,US-NY,US-PA,US-RI,US-VA",
    "attempts": 2560,
    "activations": 2513,
    "qsos": 104546
  },
  {
    "reference": "US-4763",
    "name": "Cedarville State Forest",
    "latitude": 38.6466,
    "longitude": -76.8299,
    "grid": "FM18op",
    "locationDesc": "US-MD",
    "attempts": 53,
    "activations": 50,
    "qsos": 1845
  },
  {
    "reference": "US-4764",
    "name": "Elk Neck State Forest",
    "latitude": 39.5842,
    "longitude": -75.9058,
    "grid": "FM29bo",
    "locationDesc": "US-MD",
    "attempts": 73,
    "activations": 72,
    "qsos": 2326
  },
  {
    "reference": "US-4765",
    "name": "Garrett State Forest",
    "latitude": 39.4963,
    "longitude": -79.4535,
    "grid": "FM09gl",
    "locationDesc": "US-MD",
    "attempts": 115,
    "activations": 113,
    "qsos": 3315
  },
  {
    "reference": "US-4766",
    "name": "Green Ridge State Forest",
    "latitude": 39.6837,
    "longitude": -78.4629,
    "grid": "FM09sq",
    "locationDesc": "US-MD",
    "attempts": 90,
    "activations": 81,
    "qsos": 2572
  },
  {
    "reference": "US-4767",
    "name": "Pocomoke State Forest",
    "latitude": 38.1899,
    "longitude": -75.4899,
    "grid": "FM28ge",
    "locationDesc": "US-MD",
    "attempts": 77,
    "activations": 77,
    "qsos": 3291
  },
  {
    "reference": "US-4768",
    "name": "Potomac State Forest",
    "latitude": 39.34,
    "longitude": -79.2793,
    "grid": "FM09ii",
    "locationDesc": "US-MD",
    "attempts": 49,
    "activations": 49,
    "qsos": 1541
  },
  {
    "reference": "US-4769",
    "name": "Salem State Forest",
    "latitude": 38.2817,
    "longitude": -76.5531,
    "grid": "FM18rg",
    "locationDesc": "US-MD",
    "attempts": 69,
    "activations": 69,
    "qsos": 2311
  },
  {
    "reference": "US-4770",
    "name": "Savage River State Forest",
    "latitude": 39.6289,
    "longitude": -79.1329,
    "grid": "FM09kp",
    "locationDesc": "US-MD",
    "attempts": 68,
    "activations": 68,
    "qsos": 2290
  },
  {
    "reference": "US-4771",
    "name": "St. Inigoes State Forest",
    "latitude": 38.1185,
    "longitude": -76.4205,
    "grid": "FM18sc",
    "locationDesc": "US-MD",
    "attempts": 39,
    "activations": 38,
    "qsos": 1431
  },
  {
    "reference": "US-6382",
    "name": "Harriet Tubman Underground Railroad State Park",
    "latitude": 38.4498,
    "longitude": -76.1377,
    "grid": "FM18wk",
    "locationDesc": "US-MD",
    "attempts": 60,
    "activations": 57,
    "qsos": 1970
  },
  {
    "reference": "US-6383",
    "name": "Matapeake State Park",
    "latitude": 38.9563,
    "longitude": -76.3534,
    "grid": "FM18tw",
    "locationDesc": "US-MD",
    "attempts": 78,
    "activations": 77,
    "qsos": 3221
  },
  {
    "reference": "US-6384",
    "name": "Pocomoke River State Park",
    "latitude": 38.1341,
    "longitude": -75.4413,
    "grid": "FM28gd",
    "locationDesc": "US-MD",
    "attempts": 120,
    "activations": 118,
    "qsos": 6078
  },
  {
    "reference": "US-6385",
    "name": "Bohemia River State Park",
    "latitude": 39.4737,
    "longitude": -75.8484,
    "grid": "FM29bl",
    "locationDesc": "US-MD",
    "attempts": 30,
    "activations": 30,
    "qsos": 892
  },
  {
    "reference": "US-6387",
    "name": "Fair Hill State Natural Area",
    "latitude": 39.7068,
    "longitude": -75.8558,
    "grid": "FM29bq",
    "locationDesc": "US-MD",
    "attempts": 112,
    "activations": 111,
    "qsos": 2864
  },
  {
    "reference": "US-6388",
    "name": "Helen Avalynne Tawes Garden State Park",
    "latitude": 38.9831,
    "longitude": -76.5053,
    "grid": "FM18rx",
    "locationDesc": "US-MD",
    "attempts": 110,
    "activations": 106,
    "qsos": 2325
  },
  {
    "reference": "US-6389",
    "name": "Jefferson Patterson Park and Museum State Park",
    "latitude": 38.399,
    "longitude": -76.508,
    "grid": "FM18rj",
    "locationDesc": "US-MD",
    "attempts": 167,
    "activations": 166,
    "qsos": 7354
  },
  {
    "reference": "US-6390",
    "name": "South Mountain State Battlefield State Park",
    "latitude": 39.4972,
    "longitude": -77.62,
    "grid": "FM19el",
    "locationDesc": "US-MD",
    "attempts": 479,
    "activations": 471,
    "qsos": 14476
  },
  {
    "reference": "US-6391",
    "name": "Merkle Wildlife Sanctuary State Natural Area",
    "latitude": 38.7276,
    "longitude": -76.7084,
    "grid": "FM18pr",
    "locationDesc": "US-MD",
    "attempts": 52,
    "activations": 52,
    "qsos": 2323
  },
  {
    "reference": "US-6392",
    "name": "Monocacy River Natural Resources Management Area State Natural Area",
    "latitude": 39.2433,
    "longitude": -77.439,
    "grid": "FM19gf",
    "locationDesc": "US-MD",
    "attempts": 105,
    "activations": 104,
    "qsos": 2990
  },
  {
    "reference": "US-6393",
    "name": "Morgan Run State Natural Area",
    "latitude": 39.4659,
    "longitude": -77.0006,
    "grid": "FM19ll",
    "locationDesc": "US-MD",
    "attempts": 548,
    "activations": 534,
    "qsos": 17684
  },
  {
    "reference": "US-6394",
    "name": "Sang Run State Park",
    "latitude": 39.568,
    "longitude": -79.4228,
    "grid": "FM09gn",
    "locationDesc": "US-MD",
    "attempts": 39,
    "activations": 38,
    "qsos": 1053
  },
  {
    "reference": "US-6395",
    "name": "Sassafras Natural Resources Management Area State Natural Area",
    "latitude": 39.3569,
    "longitude": -76.0016,
    "grid": "FM19xi",
    "locationDesc": "US-MD",
    "attempts": 19,
    "activations": 19,
    "qsos": 782
  },
  {
    "reference": "US-6396",
    "name": "Soldier's Delight Natural Area",
    "latitude": 39.4144,
    "longitude": -76.8357,
    "grid": "FM19nj",
    "locationDesc": "US-MD",
    "attempts": 349,
    "activations": 344,
    "qsos": 11157
  },
  {
    "reference": "US-6397",
    "name": "Wolf Den Run State Park",
    "latitude": 39.3916,
    "longitude": -79.2534,
    "grid": "FM09ij",
    "locationDesc": "US-MD",
    "attempts": 43,
    "activations": 42,
    "qsos": 1613
  },
  {
    "reference": "US-6398",
    "name": "Woodmont State Natural Area",
    "latitude": 39.6307,
    "longitude": -78.3003,
    "grid": "FM09up",
    "locationDesc": "US-MD",
    "attempts": 27,
    "activations": 27,
    "qsos": 775
  },
  {
    "reference": "US-6399",
    "name": "Wye Island State Conservation Area",
    "latitude": 38.8927,
    "longitude": -76.1446,
    "grid": "FM18wv",
    "locationDesc": "US-MD",
    "attempts": 46,
    "activations": 43,
    "qsos": 1499
  },
  {
    "reference": "US-6400",
    "name": "Youghiogheny Wild River State Natural Area",
    "latitude": 39.6618,
    "longitude": -79.4075,
    "grid": "FM09hp",
    "locationDesc": "US-MD",
    "attempts": 69,
    "activations": 68,
    "qsos": 2178
  },
  {
    "reference": "US-7724",
    "name": "Avondale Wildlife Management Area",
    "latitude": 39.5634,
    "longitude": -77.0199,
    "grid": "FM19ln",
    "locationDesc": "US-MD",
    "attempts": 207,
    "activations": 205,
    "qsos": 6185
  },
  {
    "reference": "US-7725",
    "name": "Browns Branch Wildlife Management Area",
    "latitude": 39.1689,
    "longitude": -75.9262,
    "grid": "FM29ae",
    "locationDesc": "US-MD",
    "attempts": 34,
    "activations": 34,
    "qsos": 947
  },
  {
    "reference": "US-7726",
    "name": "Earleville Wildlife Management Area",
    "latitude": 39.4492,
    "longitude": -75.9141,
    "grid": "FM29bk",
    "locationDesc": "US-MD",
    "attempts": 18,
    "activations": 18,
    "qsos": 619
  },
  {
    "reference": "US-7727",
    "name": "Grove Farm Wildlife Management Area",
    "latitude": 39.3974,
    "longitude": -75.9953,
    "grid": "FM29aj",
    "locationDesc": "US-MD",
    "attempts": 16,
    "activations": 16,
    "qsos": 448
  },
  {
    "reference": "US-7728",
    "name": "Gwynnbrook Wildlife Management Area",
    "latitude": 39.4439,
    "longitude": -76.7812,
    "grid": "FM19ok",
    "locationDesc": "US-MD",
    "attempts": 215,
    "activations": 215,
    "qsos": 8458
  },
  {
    "reference": "US-7729",
    "name": "Hugg-Thomas Wildlife Management Area",
    "latitude": 39.3585,
    "longitude": -76.9739,
    "grid": "FM19mi",
    "locationDesc": "US-MD",
    "attempts": 345,
    "activations": 343,
    "qsos": 11207
  },
  {
    "reference": "US-7730",
    "name": "McKee-Breshers Wildlife Management Area",
    "latitude": 39.0817,
    "longitude": -77.3894,
    "grid": "FM19hb",
    "locationDesc": "US-MD",
    "attempts": 67,
    "activations": 64,
    "qsos": 2775
  },
  {
    "reference": "US-7731",
    "name": "Millington Wildlife Management Area",
    "latitude": 39.3052,
    "longitude": -75.7969,
    "grid": "FM29ch",
    "locationDesc": "US-MD",
    "attempts": 38,
    "activations": 38,
    "qsos": 1129
  },
  {
    "reference": "US-7732",
    "name": "Old Bohemia Wildlife Management Area",
    "latitude": 39.4329,
    "longitude": -75.8107,
    "grid": "FM29ck",
    "locationDesc": "US-MD",
    "attempts": 18,
    "activations": 18,
    "qsos": 500
  },
  {
    "reference": "US-7733",
    "name": "Strider Wildlife Management Area",
    "latitude": 39.1553,
    "longitude": -77.2601,
    "grid": "FM19id",
    "locationDesc": "US-MD",
    "attempts": 61,
    "activations": 60,
    "qsos": 2379
  },
  {
    "reference": "US-7735",
    "name": "Cedar Island Wildlife Management Area",
    "latitude": 37.9292,
    "longitude": -75.8756,
    "grid": "FM27bw",
    "locationDesc": "US-MD",
    "attempts": 4,
    "activations": 4,
    "qsos": 491
  },
  {
    "reference": "US-7736",
    "name": "Deal Island Wildlife Management Area",
    "latitude": 38.1871,
    "longitude": -75.8636,
    "grid": "FM28be",
    "locationDesc": "US-MD",
    "attempts": 15,
    "activations": 15,
    "qsos": 687
  },
  {
    "reference": "US-7737",
    "name": "E.A. Vaughn Wildlife Management Area",
    "latitude": 38.076,
    "longitude": -75.3862,
    "grid": "FM28hb",
    "locationDesc": "US-MD",
    "attempts": 22,
    "activations": 22,
    "qsos": 839
  },
  {
    "reference": "US-7738",
    "name": "Ellis Bay Wildlife Management Area",
    "latitude": 38.2686,
    "longitude": -75.8392,
    "grid": "FM28bg",
    "locationDesc": "US-MD",
    "attempts": 12,
    "activations": 12,
    "qsos": 381
  },
  {
    "reference": "US-7739",
    "name": "Fairmount Wildlife Management Area",
    "latitude": 38.0874,
    "longitude": -75.8066,
    "grid": "FM28cc",
    "locationDesc": "US-MD",
    "attempts": 13,
    "activations": 13,
    "qsos": 642
  },
  {
    "reference": "US-7740",
    "name": "Fishing Bay Wildlife Management Area",
    "latitude": 38.3307,
    "longitude": -75.9389,
    "grid": "FM28ah",
    "locationDesc": "US-MD",
    "attempts": 17,
    "activations": 17,
    "qsos": 660
  },
  {
    "reference": "US-7741",
    "name": "Idylwild Wildlife Management Area",
    "latitude": 38.7274,
    "longitude": -75.7327,
    "grid": "FM28dr",
    "locationDesc": "US-MD",
    "attempts": 35,
    "activations": 35,
    "qsos": 1199
  },
  {
    "reference": "US-7742",
    "name": "Isle of Wight Wildlife Management Area",
    "latitude": 38.3916,
    "longitude": -75.1104,
    "grid": "FM28kj",
    "locationDesc": "US-MD",
    "attempts": 117,
    "activations": 113,
    "qsos": 4532
  },
  {
    "reference": "US-7743",
    "name": "Johnson Wildlife Management Area",
    "latitude": 38.3043,
    "longitude": -75.4989,
    "grid": "FM28gh",
    "locationDesc": "US-MD",
    "attempts": 43,
    "activations": 40,
    "qsos": 1660
  },
  {
    "reference": "US-7744",
    "name": "LeCompte Wildlife Management Area",
    "latitude": 38.4602,
    "longitude": -75.8901,
    "grid": "FM28bl",
    "locationDesc": "US-MD",
    "attempts": 18,
    "activations": 18,
    "qsos": 574
  },
  {
    "reference": "US-7745",
    "name": "Linkwood Wildlife Management Area",
    "latitude": 38.5399,
    "longitude": -75.9146,
    "grid": "FM28bm",
    "locationDesc": "US-MD",
    "attempts": 19,
    "activations": 17,
    "qsos": 435
  },
  {
    "reference": "US-7746",
    "name": "Maryland Marine Properties Wildlife Management Area",
    "latitude": 37.9819,
    "longitude": -75.6847,
    "grid": "FM27dx",
    "locationDesc": "US-MD",
    "attempts": 12,
    "activations": 12,
    "qsos": 618
  },
  {
    "reference": "US-7748",
    "name": "Nanticoke River Wildlife Management Area",
    "latitude": 38.3797,
    "longitude": -75.8171,
    "grid": "FM28cj",
    "locationDesc": "US-MD",
    "attempts": 19,
    "activations": 17,
    "qsos": 467
  },
  {
    "reference": "US-7749",
    "name": "Pocomoke Sound Wildlife Management Area",
    "latitude": 37.9864,
    "longitude": -75.6809,
    "grid": "FM27dx",
    "locationDesc": "US-MD",
    "attempts": 11,
    "activations": 11,
    "qsos": 555
  },
  {
    "reference": "US-7750",
    "name": "South Marsh Island Wildlife Management Area",
    "latitude": 38.1286,
    "longitude": -76.0182,
    "grid": "FM18xd",
    "locationDesc": "US-MD",
    "attempts": 2,
    "activations": 2,
    "qsos": 129
  },
  {
    "reference": "US-7751",
    "name": "Tar Bay Wildlife Management Area",
    "latitude": 38.3455,
    "longitude": -76.2533,
    "grid": "FM18ui",
    "locationDesc": "US-MD",
    "attempts": 4,
    "activations": 4,
    "qsos": 516
  },
  {
    "reference": "US-7752",
    "name": "Taylors Island Wildlife Management Area",
    "latitude": 38.4264,
    "longitude": -76.2768,
    "grid": "FM18uk",
    "locationDesc": "US-MD",
    "attempts": 15,
    "activations": 15,
    "qsos": 437
  },
  {
    "reference": "US-7753",
    "name": "Wellington Wildlife Management Area",
    "latitude": 38.1585,
    "longitude": -75.6174,
    "grid": "FM28ed",
    "locationDesc": "US-MD",
    "attempts": 16,
    "activations": 16,
    "qsos": 506
  },
  {
    "reference": "US-7754",
    "name": "Bowen Wildlife Management Area",
    "latitude": 38.6141,
    "longitude": -76.6829,
    "grid": "FM18po",
    "locationDesc": "US-MD",
    "attempts": 16,
    "activations": 16,
    "qsos": 727
  },
  {
    "reference": "US-7755",
    "name": "Cedar Point Wildlife Management Area",
    "latitude": 38.4447,
    "longitude": -77.0773,
    "grid": "FM18lk",
    "locationDesc": "US-MD",
    "attempts": 21,
    "activations": 21,
    "qsos": 581
  },
  {
    "reference": "US-7756",
    "name": "Cheltenham Wildlife Management Area",
    "latitude": 38.7365,
    "longitude": -76.8192,
    "grid": "FM18or",
    "locationDesc": "US-MD",
    "attempts": 37,
    "activations": 37,
    "qsos": 1243
  },
  {
    "reference": "US-7757",
    "name": "Chicamuxen Wildlife Management Area",
    "latitude": 38.5442,
    "longitude": -77.2174,
    "grid": "FM18jn",
    "locationDesc": "US-MD",
    "attempts": 33,
    "activations": 33,
    "qsos": 862
  },
  {
    "reference": "US-7758",
    "name": "Myrtle Grove Wildlife Management Area",
    "latitude": 38.5493,
    "longitude": -77.0837,
    "grid": "FM18kn",
    "locationDesc": "US-MD",
    "attempts": 29,
    "activations": 29,
    "qsos": 949
  },
  {
    "reference": "US-7760",
    "name": "Nanjemoy Creek Wildlife Management Area",
    "latitude": 38.4351,
    "longitude": -77.1358,
    "grid": "FM18kk",
    "locationDesc": "US-MD",
    "attempts": 19,
    "activations": 19,
    "qsos": 441
  },
  {
    "reference": "US-7761",
    "name": "Parker's Creek Wildlife Management Area",
    "latitude": 38.5404,
    "longitude": -76.5372,
    "grid": "FM18rm",
    "locationDesc": "US-MD",
    "attempts": 178,
    "activations": 178,
    "qsos": 4344
  },
  {
    "reference": "US-7762",
    "name": "Popes Creek Wildlife Management Area",
    "latitude": 38.4071,
    "longitude": -76.9911,
    "grid": "FM18mj",
    "locationDesc": "US-MD",
    "attempts": 28,
    "activations": 28,
    "qsos": 872
  },
  {
    "reference": "US-7763",
    "name": "Riverside Wildlife Management Area",
    "latitude": 38.3866,
    "longitude": -77.1755,
    "grid": "FM18jj",
    "locationDesc": "US-MD",
    "attempts": 23,
    "activations": 23,
    "qsos": 571
  },
  {
    "reference": "US-7764",
    "name": "Belle Grove Wildlife Management Area",
    "latitude": 39.6987,
    "longitude": -78.3607,
    "grid": "FM09tq",
    "locationDesc": "US-MD",
    "attempts": 30,
    "activations": 30,
    "qsos": 715
  },
  {
    "reference": "US-7765",
    "name": "Billmeyer Wildlife Management Area",
    "latitude": 39.6797,
    "longitude": -78.4204,
    "grid": "FM09sq",
    "locationDesc": "US-MD",
    "attempts": 31,
    "activations": 31,
    "qsos": 703
  },
  {
    "reference": "US-7766",
    "name": "Cunningham Swamp Wildlife Management Area",
    "latitude": 39.573,
    "longitude": -79.2352,
    "grid": "FM09jn",
    "locationDesc": "US-MD",
    "attempts": 39,
    "activations": 39,
    "qsos": 1169
  },
  {
    "reference": "US-7767",
    "name": "Dans Mountain Wildlife Management Area",
    "latitude": 39.5568,
    "longitude": -78.9472,
    "grid": "FM09mn",
    "locationDesc": "US-MD",
    "attempts": 21,
    "activations": 20,
    "qsos": 533
  },
  {
    "reference": "US-7768",
    "name": "Frederick City Watershed Cooperative Wildlife Management Area",
    "latitude": 39.5258,
    "longitude": -77.4629,
    "grid": "FM19gm",
    "locationDesc": "US-MD",
    "attempts": 139,
    "activations": 137,
    "qsos": 3724
  },
  {
    "reference": "US-7769",
    "name": "Heaters Island Wildlife Management Area",
    "latitude": 39.2659,
    "longitude": -77.5311,
    "grid": "FM19fg",
    "locationDesc": "US-MD",
    "attempts": 18,
    "activations": 18,
    "qsos": 1559
  },
  {
    "reference": "US-7770",
    "name": "Indian Springs Wildlife Management Area",
    "latitude": 39.7031,
    "longitude": -77.9875,
    "grid": "FM19aq",
    "locationDesc": "US-MD",
    "attempts": 39,
    "activations": 37,
    "qsos": 1239
  },
  {
    "reference": "US-7771",
    "name": "Mt. Nebo Wildlife Management Area",
    "latitude": 39.4513,
    "longitude": -79.3744,
    "grid": "FM09hk",
    "locationDesc": "US-MD",
    "attempts": 42,
    "activations": 39,
    "qsos": 1059
  },
  {
    "reference": "US-7772",
    "name": "Prathers Neck Wildlife Management Area",
    "latitude": 39.5946,
    "longitude": -77.9439,
    "grid": "FM19ao",
    "locationDesc": "US-MD",
    "attempts": 34,
    "activations": 34,
    "qsos": 925
  },
  {
    "reference": "US-7773",
    "name": "Ridenour Swamp Wildlife Management Area",
    "latitude": 39.6312,
    "longitude": -77.516,
    "grid": "FM19fp",
    "locationDesc": "US-MD",
    "attempts": 78,
    "activations": 76,
    "qsos": 2927
  },
  {
    "reference": "US-7774",
    "name": "Sideling Hill Wildlife Management Area",
    "latitude": 39.6521,
    "longitude": -78.3209,
    "grid": "FM09up",
    "locationDesc": "US-MD",
    "attempts": 34,
    "activations": 34,
    "qsos": 768
  },
  {
    "reference": "US-7775",
    "name": "Warrior Mountain Wildlife Management Area",
    "latitude": 39.5917,
    "longitude": -78.6403,
    "grid": "FM09qo",
    "locationDesc": "US-MD",
    "attempts": 20,
    "activations": 20,
    "qsos": 487
  },
  {
    "reference": "US-7776",
    "name": "Oxon Cove Park & Farm National Historical Park",
    "latitude": 38.8021,
    "longitude": -77.0079,
    "grid": "FM18lt",
    "locationDesc": "US-MD",
    "attempts": 77,
    "activations": 76,
    "qsos": 2490
  },
  {
    "reference": "US-7777",
    "name": "Dierssen Wildlife Management Area",
    "latitude": 39.0585,
    "longitude": -77.3068,
    "grid": "FM19ib",
    "locationDesc": "US-MD",
    "attempts": 51,
    "activations": 51,
    "qsos": 1656
  },
  {
    "reference": "US-7778",
    "name": "Islands of the Potomac Wildlife Management Area",
    "latitude": 39.1783,
    "longitude": -77.5033,
    "grid": "FM19fe",
    "locationDesc": "US-MD",
    "attempts": 12,
    "activations": 12,
    "qsos": 690
  },
  {
    "reference": "US-7779",
    "name": "Pocomoke River Wildlife Management Area",
    "latitude": 38.094,
    "longitude": -75.4977,
    "grid": "FM28gc",
    "locationDesc": "US-MD",
    "attempts": 41,
    "activations": 41,
    "qsos": 1271
  },
  {
    "reference": "US-7780",
    "name": "Sinepuxent Bay Wildlife Management Area",
    "latitude": 38.2946,
    "longitude": -75.1214,
    "grid": "FM28kh",
    "locationDesc": "US-MD",
    "attempts": 18,
    "activations": 17,
    "qsos": 1161
  },
  {
    "reference": "US-7781",
    "name": "Wetipquin Wildlife Management Area",
    "latitude": 38.3182,
    "longitude": -75.8172,
    "grid": "FM28ch",
    "locationDesc": "US-MD",
    "attempts": 14,
    "activations": 13,
    "qsos": 383
  },
  {
    "reference": "US-7782",
    "name": "Ben Doane Parcel of Nanjemoy Wildlife Management Area",
    "latitude": 38.5213,
    "longitude": -77.2453,
    "grid": "FM18jm",
    "locationDesc": "US-MD",
    "attempts": 26,
    "activations": 26,
    "qsos": 918
  },
  {
    "reference": "US-7783",
    "name": "Gravel Hill Swamp Wildlife Management Area",
    "latitude": 39.5707,
    "longitude": -77.4994,
    "grid": "FM19gn",
    "locationDesc": "US-MD",
    "attempts": 70,
    "activations": 69,
    "qsos": 2333
  },
  {
    "reference": "US-7973",
    "name": "Baltimore-Washington National Parkway",
    "latitude": 38.9792,
    "longitude": -76.8976,
    "grid": "FM18nx",
    "locationDesc": "US-MD",
    "attempts": 1584,
    "activations": 1577,
    "qsos": 50084
  },
  {
    "reference": "US-7974",
    "name": "Harmony Hall National Heritage Site",
    "latitude": 38.745,
    "longitude": -77.0006,
    "grid": "FM18lr",
    "locationDesc": "US-MD",
    "attempts": 12,
    "activations": 12,
    "qsos": 437
  },
  {
    "reference": "US-7975",
    "name": "Glen Echo National Heritage Site",
    "latitude": 38.9649,
    "longitude": -77.1367,
    "grid": "FM18kx",
    "locationDesc": "US-MD",
    "attempts": 132,
    "activations": 129,
    "qsos": 6517
  },
  {
    "reference": "US-9901",
    "name": "Civil War Defenses of Washington National Historic Trail",
    "latitude": 38.9346,
    "longitude": -77.126,
    "grid": "FM18kw",
    "locationDesc": "US-DC,US-MD,US-VA",
    "attempts": 1038,
    "activations": 1025,
    "qsos": 46177
  },
  {
    "reference": "US-10732",
    "name": "Hickory Point Cypress Swamp Natural Area",
    "latitude": 38.0294,
    "longitude": -75.6404,
    "grid": "FM28ea",
    "locationDesc": "US-MD",
    "attempts": 12,
    "activations": 12,
    "qsos": 351
  },
  {
    "reference": "US-10751",
    "name": "Idylwild Natural Area",
    "latitude": 38.733,
    "longitude": -75.7606,
    "grid": "FM28cr",
    "locationDesc": "US-MD",
    "attempts": 12,
    "activations": 12,
    "qsos": 363
  },
  {
    "reference": "US-10756",
    "name": "Skimmer Island Natural Area",
    "latitude": 38.3377,
    "longitude": -75.0943,
    "grid": "FM28ki",
    "locationDesc": "US-MD",
    "attempts": 10,
    "activations": 10,
    "qsos": 617
  },
  {
    "reference": "US-10758",
    "name": "North End Natural Area",
    "latitude": 38.2615,
    "longitude": -75.1262,
    "grid": "FM28kg",
    "locationDesc": "US-MD",
    "attempts": 27,
    "activations": 26,
    "qsos": 846
  },
  {
    "reference": "US-10759",
    "name": "Green Run Woods Natural Area",
    "latitude": 38.0853,
    "longitude": -75.213,
    "grid": "FM28jc",
    "locationDesc": "US-MD",
    "attempts": 8,
    "activations": 7,
    "qsos": 405
  },
  {
    "reference": "US-10762",
    "name": "Furnace Natural Area",
    "latitude": 38.1977,
    "longitude": -75.4756,
    "grid": "FM28ge",
    "locationDesc": "US-MD",
    "attempts": 26,
    "activations": 25,
    "qsos": 876
  },
  {
    "reference": "US-10763",
    "name": "Fishing Bay Marshes Natural Area",
    "latitude": 38.322,
    "longitude": -75.9458,
    "grid": "FM28ah",
    "locationDesc": "US-MD",
    "attempts": 10,
    "activations": 10,
    "qsos": 345
  },
  {
    "reference": "US-10764",
    "name": "Andover Flatwoods Natural Area",
    "latitude": 39.1764,
    "longitude": -75.7795,
    "grid": "FM29ce",
    "locationDesc": "US-MD",
    "attempts": 13,
    "activations": 13,
    "qsos": 229
  },
  {
    "reference": "US-10765",
    "name": "Millington Natural Area",
    "latitude": 39.3112,
    "longitude": -75.7836,
    "grid": "FM29ch",
    "locationDesc": "US-MD",
    "attempts": 15,
    "activations": 15,
    "qsos": 398
  },
  {
    "reference": "US-10766",
    "name": "Swallow Falls Natural Area",
    "latitude": 39.5035,
    "longitude": -79.4162,
    "grid": "FM09hm",
    "locationDesc": "US-MD",
    "attempts": 39,
    "activations": 39,
    "qsos": 993
  },
  {
    "reference": "US-10767",
    "name": "Lostland Run Natural Area",
    "latitude": 39.3691,
    "longitude": -79.2485,
    "grid": "FM09ji",
    "locationDesc": "US-MD",
    "attempts": 27,
    "activations": 27,
    "qsos": 920
  },
  {
    "reference": "US-10768",
    "name": "South Savage Mountain Natural Area",
    "latitude": 39.5024,
    "longitude": -79.1226,
    "grid": "FM09km",
    "locationDesc": "US-MD",
    "attempts": 14,
    "activations": 14,
    "qsos": 362
  },
  {
    "reference": "US-10769",
    "name": "Monroe Run Natural Area",
    "latitude": 39.5601,
    "longitude": -79.1781,
    "grid": "FM09jn",
    "locationDesc": "US-MD",
    "attempts": 23,
    "activations": 23,
    "qsos": 699
  },
  {
    "reference": "US-10770",
    "name": "Bear Pen Run Natural Area",
    "latitude": 39.5761,
    "longitude": -79.1191,
    "grid": "FM09kn",
    "locationDesc": "US-MD",
    "attempts": 12,
    "activations": 12,
    "qsos": 516
  },
  {
    "reference": "US-10771",
    "name": "Cat Rock and Bob's Hill Natural Area",
    "latitude": 39.6054,
    "longitude": -77.4636,
    "grid": "FM19go",
    "locationDesc": "US-MD",
    "attempts": 18,
    "activations": 18,
    "qsos": 329
  },
  {
    "reference": "US-10773",
    "name": "Masemore Hemlock Ravines Natural Area",
    "latitude": 39.6058,
    "longitude": -76.6759,
    "grid": "FM19po",
    "locationDesc": "US-MD",
    "attempts": 26,
    "activations": 26,
    "qsos": 711
  },
  {
    "reference": "US-10774",
    "name": "Plum Creek Natural Area",
    "latitude": 39.5735,
    "longitude": -75.8982,
    "grid": "FM29bn",
    "locationDesc": "US-MD",
    "attempts": 39,
    "activations": 39,
    "qsos": 1494
  },
  {
    "reference": "US-10775",
    "name": "Black Marsh Natural Area",
    "latitude": 39.2242,
    "longitude": -76.418,
    "grid": "FM19sf",
    "locationDesc": "US-MD",
    "attempts": 44,
    "activations": 43,
    "qsos": 2571
  },
  {
    "reference": "US-10779",
    "name": "Mattawoman Creek Natural Area",
    "latitude": 38.5833,
    "longitude": -77.144,
    "grid": "FM18kn",
    "locationDesc": "US-MD",
    "attempts": 13,
    "activations": 13,
    "qsos": 338
  },
  {
    "reference": "US-10780",
    "name": "Allens Fresh Natural Area",
    "latitude": 38.4172,
    "longitude": -76.9342,
    "grid": "FM18mk",
    "locationDesc": "US-MD",
    "attempts": 17,
    "activations": 17,
    "qsos": 472
  },
  {
    "reference": "US-10781",
    "name": "Calvert Cliffs Natural Area",
    "latitude": 38.4025,
    "longitude": -76.4216,
    "grid": "FM18sj",
    "locationDesc": "US-MD",
    "attempts": 120,
    "activations": 119,
    "qsos": 4232
  },
  {
    "reference": "US-10784",
    "name": "Deep Creek Lake Natural Resource Management Area",
    "latitude": 39.5124,
    "longitude": -79.316,
    "grid": "FM09im",
    "locationDesc": "US-MD",
    "attempts": 37,
    "activations": 35,
    "qsos": 1062
  },
  {
    "reference": "US-11231",
    "name": "Sideling Hill Creek State Park",
    "latitude": 39.6511,
    "longitude": -78.3508,
    "grid": "FM09tp",
    "locationDesc": "US-MD",
    "attempts": 11,
    "activations": 11,
    "qsos": 262
  },
  {
    "reference": "US-13377",
    "name": "Freedman's State Park",
    "latitude": 39.2393,
    "longitude": -77.0581,
    "grid": "FM19lf",
    "locationDesc": "US-MD",
    "attempts": 1,
    "activations": 1,
    "qsos": 11
  }
]
